[
  {
    "type": "Feature",
    "properties": {
      "name": "irma",
      "address": "Nørrebrogade 124 2200 København N",
      "lat": 55.69448,
      "lon": 12.5493259,
      "id": "fd9a10e9-4f4f-48ed-8d8e-b558a0407a41"
    },
    "geometry": {
      "type": "Point",
      "coordinates": [
        55.69448,
        12.5493259
      ]
    }
  },
  {
    "type": "Feature",
    "properties": {
      "name": "irma",
      "address": "Brobergsgade 7 1427 København K",
      "lat": 55.67525,
      "lon": 12.5971527,
      "id": "ebe2d1ea-a798-4675-a293-29408bf8f61d"
    },
    "geometry": {
      "type": "Point",
      "coordinates": [
        55.67525,
        12.5971527
      ]
    }
  },
  {
    "type": "Feature",
    "properties": {
      "name": "irma",
      "address": "Kongevejen 18A 2791 Dragør",
      "lat": 55.59409,
      "lon": 12.6729317,
      "id": "d7cd314f-b181-4a89-ab54-89e8de8987bd"
    },
    "geometry": {
      "type": "Point",
      "coordinates": [
        55.59409,
        12.6729317
      ]
    }
  },
  {
    "type": "Feature",
    "properties": {
      "name": "irma",
      "address": "Østerbrogade 162 2100 København Ø",
      "lat": 55.71014,
      "lon": 12.5778971,
      "id": "1921386e-6e6f-4b5e-9596-b9f33d67015f"
    },
    "geometry": {
      "type": "Point",
      "coordinates": [
        55.71014,
        12.5778971
      ]
    }
  },
  {
    "type": "Feature",
    "properties": {
      "name": "irma",
      "address": "Lyngbyvej 32 2100 København Ø",
      "lat": 55.7094727,
      "lon": 12.5621719,
      "id": "4e62661d-f24e-46c2-9f33-8b8fd2458b10"
    },
    "geometry": {
      "type": "Point",
      "coordinates": [
        55.7094727,
        12.5621719
      ]
    }
  },
  {
    "type": "Feature",
    "properties": {
      "name": "irma",
      "address": "Sorgenfri Torv 14 2830 Virum",
      "lat": 55.7818069,
      "lon": 12.4811907,
      "id": "ae919a8b-6d4f-4345-a425-bf9fecbf734d"
    },
    "geometry": {
      "type": "Point",
      "coordinates": [
        55.7818069,
        12.4811907
      ]
    }
  },
  {
    "type": "Feature",
    "properties": {
      "name": "irma",
      "address": "Rantzausgade 11A 2200 København N",
      "lat": 55.6858063,
      "lon": 12.5513573,
      "id": "bf101a3d-d2bb-41ff-a7f4-076bfc2ef39e"
    },
    "geometry": {
      "type": "Point",
      "coordinates": [
        55.6858063,
        12.5513573
      ]
    }
  },
  {
    "type": "Feature",
    "properties": {
      "name": "irma",
      "address": "Gammel Kongevej 64 1850 Frederiksberg C",
      "lat": 55.67389,
      "lon": 12.553462,
      "id": "c2397097-aed5-4be5-b9e7-05dd49c00611"
    },
    "geometry": {
      "type": "Point",
      "coordinates": [
        55.67389,
        12.553462
      ]
    }
  },
  {
    "type": "Feature",
    "properties": {
      "name": "irma",
      "address": "Godthåbsvej 197 2720 Vanløse",
      "lat": 55.6923981,
      "lon": 12.5137138,
      "id": "09cb5e85-0349-404f-826e-9119afb0320a"
    },
    "geometry": {
      "type": "Point",
      "coordinates": [
        55.6923981,
        12.5137138
      ]
    }
  },
  {
    "type": "Feature",
    "properties": {
      "name": "irma",
      "address": "Tagensvej 70 2200 København N",
      "lat": 55.70142,
      "lon": 12.5514174,
      "id": "c358f5ab-c2f9-4300-8e32-57b4a345784e"
    },
    "geometry": {
      "type": "Point",
      "coordinates": [
        55.70142,
        12.5514174
      ]
    }
  },
  {
    "type": "Feature",
    "properties": {
      "name": "irma",
      "address": "Holte Stationsvej 6 2840 Holte",
      "lat": 55.81104,
      "lon": 12.47181,
      "id": "f5a7617c-bf7f-470b-ad97-0f8834d8c268"
    },
    "geometry": {
      "type": "Point",
      "coordinates": [
        55.81104,
        12.47181
      ]
    }
  },
  {
    "type": "Feature",
    "properties": {
      "name": "irma",
      "address": "Søborg Hovedgade 70 2860 Søborg",
      "lat": 55.73372,
      "lon": 12.51574,
      "id": "1ee189bd-f360-401e-9e0e-a86c39702ee8"
    },
    "geometry": {
      "type": "Point",
      "coordinates": [
        55.73372,
        12.51574
      ]
    }
  },
  {
    "type": "Feature",
    "properties": {
      "name": "irma",
      "address": "Jægersborg Alle 21 2920 Charlottenlund",
      "lat": 55.75377,
      "lon": 12.5701675,
      "id": "e1fb5a18-ce09-45ff-80a7-bbefea336e74"
    },
    "geometry": {
      "type": "Point",
      "coordinates": [
        55.75377,
        12.5701675
      ]
    }
  },
  {
    "type": "Feature",
    "properties": {
      "name": "irma",
      "address": "Tybjergvej 115-117 2720 Vanløse",
      "lat": 55.6993523,
      "lon": 12.4698334,
      "id": "23affea0-64b0-4e75-a11c-f0e1e66a79e3"
    },
    "geometry": {
      "type": "Point",
      "coordinates": [
        55.6993523,
        12.4698334
      ]
    }
  },
  {
    "type": "Feature",
    "properties": {
      "name": "irma",
      "address": "Nordre Fasanvej 175 2000 Frederiksberg",
      "lat": 55.6933327,
      "lon": 12.53226,
      "id": "2ebbf969-895a-431f-8af1-d720f06fac28"
    },
    "geometry": {
      "type": "Point",
      "coordinates": [
        55.6933327,
        12.53226
      ]
    }
  },
  {
    "type": "Feature",
    "properties": {
      "name": "irma",
      "address": "Vesterbrogade 1A 1620 København V",
      "lat": 55.67544,
      "lon": 12.56737,
      "id": "2d028920-774b-4c61-a5fd-dec4a42b1268"
    },
    "geometry": {
      "type": "Point",
      "coordinates": [
        55.67544,
        12.56737
      ]
    }
  },
  {
    "type": "Feature",
    "properties": {
      "name": "irma",
      "address": "Gammel Kongevej 117 1850 Frederiksberg C",
      "lat": 55.6757851,
      "lon": 12.5436907,
      "id": "899b3152-6917-4f24-970c-852ad0fb8fb3"
    },
    "geometry": {
      "type": "Point",
      "coordinates": [
        55.6757851,
        12.5436907
      ]
    }
  },
  {
    "type": "Feature",
    "properties": {
      "name": "irma",
      "address": "Ryesgade 60 2100 København Ø",
      "lat": 55.69452,
      "lon": 12.5708628,
      "id": "aeb9f0c7-75bc-4bd6-ae4e-ca9ce88ff60b"
    },
    "geometry": {
      "type": "Point",
      "coordinates": [
        55.69452,
        12.5708628
      ]
    }
  },
  {
    "type": "Feature",
    "properties": {
      "name": "irma",
      "address": "Østerbrogade 52 2100 København Ø",
      "lat": 55.6972046,
      "lon": 12.5795565,
      "id": "ce67ad57-6d4b-433e-98bf-a1521d7db863"
    },
    "geometry": {
      "type": "Point",
      "coordinates": [
        55.6972046,
        12.5795565
      ]
    }
  },
  {
    "type": "Feature",
    "properties": {
      "name": "irma",
      "address": "Nørre Voldgade 76 1358 København K",
      "lat": 55.68298,
      "lon": 12.5721941,
      "id": "da515a57-cbf5-4019-b278-26f851047d9a"
    },
    "geometry": {
      "type": "Point",
      "coordinates": [
        55.68298,
        12.5721941
      ]
    }
  },
  {
    "type": "Feature",
    "properties": {
      "name": "irma",
      "address": "Torvegade 58 1400 København K",
      "lat": 55.67151,
      "lon": 12.5928535,
      "id": "956dff27-10a2-4d82-a23b-4fcd90c303ee"
    },
    "geometry": {
      "type": "Point",
      "coordinates": [
        55.67151,
        12.5928535
      ]
    }
  },
  {
    "type": "Feature",
    "properties": {
      "name": "irma",
      "address": "Reberbanegade 3 2300 København S",
      "lat": 55.6616974,
      "lon": 12.60885,
      "id": "c07d52f2-39eb-485b-aa67-c6db31b8e84e"
    },
    "geometry": {
      "type": "Point",
      "coordinates": [
        55.6616974,
        12.60885
      ]
    }
  },
  {
    "type": "Feature",
    "properties": {
      "name": "irma",
      "address": "Jernbane Allé 53 2720 Vanløse",
      "lat": 55.6888771,
      "lon": 12.4889545,
      "id": "4e6ed500-d173-4e1c-a9de-b3a498c8b92a"
    },
    "geometry": {
      "type": "Point",
      "coordinates": [
        55.6888771,
        12.4889545
      ]
    }
  },
  {
    "type": "Feature",
    "properties": {
      "name": "irma",
      "address": "Frederiksborggade 34 - 36 1360 København K",
      "lat": 55.6848869,
      "lon": 12.5688763,
      "id": "28050f06-89bb-4d2d-b646-30c6a7d7c46c"
    },
    "geometry": {
      "type": "Point",
      "coordinates": [
        55.6848869,
        12.5688763
      ]
    }
  },
  {
    "type": "Feature",
    "properties": {
      "name": "irma",
      "address": "Rosenørns Alle 60 - 62 1970 Frederiksberg C",
      "lat": 55.68323,
      "lon": 12.5475874,
      "id": "f07acbdd-dd40-447c-8781-b25dd188a335"
    },
    "geometry": {
      "type": "Point",
      "coordinates": [
        55.68323,
        12.5475874
      ]
    }
  },
  {
    "type": "Feature",
    "properties": {
      "name": "irma",
      "address": "Mozartsvej 32 2450 København Sv",
      "lat": 55.64812,
      "lon": 12.52771,
      "id": "30a1e271-42c7-4758-89bb-c29625c372a3"
    },
    "geometry": {
      "type": "Point",
      "coordinates": [
        55.64812,
        12.52771
      ]
    }
  },
  {
    "type": "Feature",
    "properties": {
      "name": "irma",
      "address": "Nørrebrogade 3A 2200 København N",
      "lat": 55.68723,
      "lon": 12.5618391,
      "id": "68b217d4-1f3e-4a3f-b98b-a56ea00ee0f8"
    },
    "geometry": {
      "type": "Point",
      "coordinates": [
        55.68723,
        12.5618391
      ]
    }
  },
  {
    "type": "Feature",
    "properties": {
      "name": "irma",
      "address": "Oslo Plads 2, Østerport St 2100 København Ø",
      "lat": 55.6921272,
      "lon": 12.5879974,
      "id": "176ae83f-dacf-4ead-aada-9f9e8cc6d1a9"
    },
    "geometry": {
      "type": "Point",
      "coordinates": [
        55.6921272,
        12.5879974
      ]
    }
  },
  {
    "type": "Feature",
    "properties": {
      "name": "irma",
      "address": "Østerbrogade 110 2100 København Ø",
      "lat": 55.7036362,
      "lon": 12.5775223,
      "id": "18fdb400-f082-4f9a-b4e6-5e9b0c088897"
    },
    "geometry": {
      "type": "Point",
      "coordinates": [
        55.7036362,
        12.5775223
      ]
    }
  },
  {
    "type": "Feature",
    "properties": {
      "name": "irma",
      "address": "Smedetoften 10 2400 København Nv",
      "lat": 55.70915,
      "lon": 12.5214777,
      "id": "de71699d-7e82-46e4-b077-44d99ecb2030"
    },
    "geometry": {
      "type": "Point",
      "coordinates": [
        55.70915,
        12.5214777
      ]
    }
  },
  {
    "type": "Feature",
    "properties": {
      "name": "irma",
      "address": "Roskildevej 148 D 2500 Valby",
      "lat": 55.67276,
      "lon": 12.4879789,
      "id": "fbc6b96b-5685-4415-9d50-6a8c40419b61"
    },
    "geometry": {
      "type": "Point",
      "coordinates": [
        55.67276,
        12.4879789
      ]
    }
  },
  {
    "type": "Feature",
    "properties": {
      "name": "irma",
      "address": "Stengårds Alle 38A 2800 Kongens Lyngby",
      "lat": 55.76037,
      "lon": 12.48402,
      "id": "2bff4b17-be08-4041-b967-0942c2ea2a96"
    },
    "geometry": {
      "type": "Point",
      "coordinates": [
        55.76037,
        12.48402
      ]
    }
  },
  {
    "type": "Feature",
    "properties": {
      "name": "irma",
      "address": "Emdrupvej 155 2400 København Nv",
      "lat": 55.72286,
      "lon": 12.5321655,
      "id": "300a2de4-5649-48b6-b532-8a2509fe428c"
    },
    "geometry": {
      "type": "Point",
      "coordinates": [
        55.72286,
        12.5321655
      ]
    }
  },
  {
    "type": "Feature",
    "properties": {
      "name": "irma",
      "address": "Lyngby Hovedgade 21 2800 Kongens Lyngby",
      "lat": 55.7719269,
      "lon": 12.5018559,
      "id": "01ebd19c-f8ba-4331-839a-63a92ec53649"
    },
    "geometry": {
      "type": "Point",
      "coordinates": [
        55.7719269,
        12.5018559
      ]
    }
  },
  {
    "type": "Feature",
    "properties": {
      "name": "irma",
      "address": "Rødovre Centrum 1G, St 150 2610 Rødovre",
      "lat": 55.67904,
      "lon": 12.4568071,
      "id": "05944868-035d-4475-ad73-bdca4219cbe0"
    },
    "geometry": {
      "type": "Point",
      "coordinates": [
        55.67904,
        12.4568071
      ]
    }
  },
  {
    "type": "Feature",
    "properties": {
      "name": "irma",
      "address": "Bagsværd Hovedgade 107C 2880 Bagsværd",
      "lat": 55.7601357,
      "lon": 12.4554424,
      "id": "b81098d5-9a52-4e2f-84f2-5dc62e23a60d"
    },
    "geometry": {
      "type": "Point",
      "coordinates": [
        55.7601357,
        12.4554424
      ]
    }
  },
  {
    "type": "Feature",
    "properties": {
      "name": "irma",
      "address": "Finsensvej 9 2000 Frederiksberg",
      "lat": 55.6810074,
      "lon": 12.5196285,
      "id": "6a9aa7eb-027b-47e3-9dfb-c116be4eba86"
    },
    "geometry": {
      "type": "Point",
      "coordinates": [
        55.6810074,
        12.5196285
      ]
    }
  },
  {
    "type": "Feature",
    "properties": {
      "name": "irma",
      "address": "Østerbrogade 135 2100 København Ø",
      "lat": 55.7125854,
      "lon": 12.577301,
      "id": "e861c4d5-ab07-4b76-9d05-3554fd28dba2"
    },
    "geometry": {
      "type": "Point",
      "coordinates": [
        55.7125854,
        12.577301
      ]
    }
  },
  {
    "type": "Feature",
    "properties": {
      "name": "irma",
      "address": "Kastrupvej 223 2770 Kastrup",
      "lat": 55.6425858,
      "lon": 12.6313515,
      "id": "49021ad7-db9a-433b-a306-f5412c528b82"
    },
    "geometry": {
      "type": "Point",
      "coordinates": [
        55.6425858,
        12.6313515
      ]
    }
  },
  {
    "type": "Feature",
    "properties": {
      "name": "irma",
      "address": "Ordrupvej 79 2920 Charlottenlund",
      "lat": 55.7620239,
      "lon": 12.5761,
      "id": "0f06d6fa-cdd5-4d3d-a3ec-5e2c97e994fa"
    },
    "geometry": {
      "type": "Point",
      "coordinates": [
        55.7620239,
        12.5761
      ]
    }
  },
  {
    "type": "Feature",
    "properties": {
      "name": "irma",
      "address": "Hørsholm Midtpunkt 71 2970 Hørsholm",
      "lat": 55.882,
      "lon": 12.4970245,
      "id": "bd65ec30-e34e-4da3-a994-65ceea48a9d0"
    },
    "geometry": {
      "type": "Point",
      "coordinates": [
        55.882,
        12.4970245
      ]
    }
  },
  {
    "type": "Feature",
    "properties": {
      "name": "irma",
      "address": "Farum Bytorv 72 3520 Farum",
      "lat": 55.8144264,
      "lon": 12.381362,
      "id": "7440b2e5-232b-4792-b774-132d93371d07"
    },
    "geometry": {
      "type": "Point",
      "coordinates": [
        55.8144264,
        12.381362
      ]
    }
  },
  {
    "type": "Feature",
    "properties": {
      "name": "irma",
      "address": "Peter Fjelstrups Vej 6 3250 Gilleleje",
      "lat": 56.1243553,
      "lon": 12.3057585,
      "id": "9f78427c-9c56-4994-8697-13d0ae84ef1f"
    },
    "geometry": {
      "type": "Point",
      "coordinates": [
        56.1243553,
        12.3057585
      ]
    }
  },
  {
    "type": "Feature",
    "properties": {
      "name": "irma",
      "address": "Nørre Torv 9 3060 Espergærde",
      "lat": 55.99544,
      "lon": 12.546381,
      "id": "61ed4087-f8ad-40ed-bae0-968c986334dd"
    },
    "geometry": {
      "type": "Point",
      "coordinates": [
        55.99544,
        12.546381
      ]
    }
  },
  {
    "type": "Feature",
    "properties": {
      "name": "irma",
      "address": "Gefionsvej 47D 3000 Helsingør",
      "lat": 56.03909,
      "lon": 12.5873175,
      "id": "40bd55f1-3600-4712-8577-ca7ab8add573"
    },
    "geometry": {
      "type": "Point",
      "coordinates": [
        56.03909,
        12.5873175
      ]
    }
  },
  {
    "type": "Feature",
    "properties": {
      "name": "irma",
      "address": "Humlebæk Center 27 3050 Humlebæk",
      "lat": 55.9644279,
      "lon": 12.5304871,
      "id": "0dcd0fe0-5aa9-4437-93c5-38cf58358f89"
    },
    "geometry": {
      "type": "Point",
      "coordinates": [
        55.9644279,
        12.5304871
      ]
    }
  },
  {
    "type": "Feature",
    "properties": {
      "name": "irma",
      "address": "Madvigs Plads 10A 4500 Nykøbing Sj",
      "lat": 55.9229164,
      "lon": 11.6674395,
      "id": "e0019198-ec23-4840-bbf9-c31202e2f357"
    },
    "geometry": {
      "type": "Point",
      "coordinates": [
        55.9229164,
        11.6674395
      ]
    }
  },
  {
    "type": "Feature",
    "properties": {
      "name": "irma",
      "address": "Skomagergade 21 4000 Roskilde",
      "lat": 55.6406975,
      "lon": 12.0772209,
      "id": "ec2942b3-d904-4f13-b7df-11cf9da6f3b0"
    },
    "geometry": {
      "type": "Point",
      "coordinates": [
        55.6406975,
        12.0772209
      ]
    }
  },
  {
    "type": "Feature",
    "properties": {
      "name": "irma",
      "address": "Vesterbrogade 46 1620 København V",
      "lat": 55.6724625,
      "lon": 12.5554352,
      "id": "f2e4386f-ff1c-4382-8011-50065cf293a0"
    },
    "geometry": {
      "type": "Point",
      "coordinates": [
        55.6724625,
        12.5554352
      ]
    }
  },
  {
    "type": "Feature",
    "properties": {
      "name": "irma",
      "address": "Vedbæk Strandvej 393 2950 Vedbæk",
      "lat": 55.8509064,
      "lon": 12.5684528,
      "id": "1f4ff7ba-1ee9-4589-ab35-e76ab93f7399"
    },
    "geometry": {
      "type": "Point",
      "coordinates": [
        55.8509064,
        12.5684528
      ]
    }
  },
  {
    "type": "Feature",
    "properties": {
      "name": "irma",
      "address": "Tuborg Havnevej 4-8 2900 Hellerup",
      "lat": 55.72585,
      "lon": 12.57816,
      "id": "e8594fe6-3b94-4879-8aff-3afaef634ba9"
    },
    "geometry": {
      "type": "Point",
      "coordinates": [
        55.72585,
        12.57816
      ]
    }
  },
  {
    "type": "Feature",
    "properties": {
      "name": "irma",
      "address": "Sylows Alle 17 2000 Frederiksberg",
      "lat": 55.6801338,
      "lon": 12.5308418,
      "id": "5b7a3bf2-9555-49ab-9da0-6de243ebc299"
    },
    "geometry": {
      "type": "Point",
      "coordinates": [
        55.6801338,
        12.5308418
      ]
    }
  },
  {
    "type": "Feature",
    "properties": {
      "name": "irma",
      "address": "Borgergade 24 1300 København K",
      "lat": 55.6847229,
      "lon": 12.5862713,
      "id": "28ac990d-6698-4238-aa33-9724f47da65f"
    },
    "geometry": {
      "type": "Point",
      "coordinates": [
        55.6847229,
        12.5862713
      ]
    }
  },
  {
    "type": "Feature",
    "properties": {
      "name": "irma",
      "address": "Valby Langgade 48 2500 Valby",
      "lat": 55.6667824,
      "lon": 12.5159836,
      "id": "2773c709-419e-422f-bc7b-350cccae55e9"
    },
    "geometry": {
      "type": "Point",
      "coordinates": [
        55.6667824,
        12.5159836
      ]
    }
  },
  {
    "type": "Feature",
    "properties": {
      "name": "irma",
      "address": "Sluseholmen 18 2450 København Sv",
      "lat": 55.645874,
      "lon": 12.5487471,
      "id": "94eb6a83-7203-4668-ae8d-e17c2d98650c"
    },
    "geometry": {
      "type": "Point",
      "coordinates": [
        55.645874,
        12.5487471
      ]
    }
  },
  {
    "type": "Feature",
    "properties": {
      "name": "irma",
      "address": "Islands Brygge 79 E 2300 København S",
      "lat": 55.6580963,
      "lon": 12.5674524,
      "id": "ea977343-e84e-4dd1-8f08-d1c6c6b53f98"
    },
    "geometry": {
      "type": "Point",
      "coordinates": [
        55.6580963,
        12.5674524
      ]
    }
  },
  {
    "type": "Feature",
    "properties": {
      "name": "irma",
      "address": "Strandvejen 213 2900 Hellerup",
      "lat": 55.7406425,
      "lon": 12.5774784,
      "id": "1a65a05a-282e-479b-b5f3-354c91ae4c8f"
    },
    "geometry": {
      "type": "Point",
      "coordinates": [
        55.7406425,
        12.5774784
      ]
    }
  },
  {
    "type": "Feature",
    "properties": {
      "name": "irma",
      "address": "Østergade 7 3400 Hillerød",
      "lat": 55.9300156,
      "lon": 12.3058834,
      "id": "c1f0c5fd-48ef-47cb-8f9f-13736425d8b7"
    },
    "geometry": {
      "type": "Point",
      "coordinates": [
        55.9300156,
        12.3058834
      ]
    }
  },
  {
    "type": "Feature",
    "properties": {
      "name": "irma",
      "address": "Edvard Thomsens Vej 2A 2300 København S",
      "lat": 55.6317024,
      "lon": 12.57484,
      "id": "92a6ff25-01c8-4885-9c67-42b5328d954d"
    },
    "geometry": {
      "type": "Point",
      "coordinates": [
        55.6317024,
        12.57484
      ]
    }
  },
  {
    "type": "Feature",
    "properties": {
      "name": "irma",
      "address": "Greve Strandvej 4A 2670 Greve",
      "lat": 55.58303,
      "lon": 12.3126192,
      "id": "196677f8-d01d-497f-84b9-9c736520164d"
    },
    "geometry": {
      "type": "Point",
      "coordinates": [
        55.58303,
        12.3126192
      ]
    }
  },
  {
    "type": "Feature",
    "properties": {
      "name": "irma",
      "address": "Strandboulevarden 94 2100 København Ø",
      "lat": 55.70649,
      "lon": 12.5865545,
      "id": "b9ae3fcf-229c-40b7-97bf-7540045168cc"
    },
    "geometry": {
      "type": "Point",
      "coordinates": [
        55.70649,
        12.5865545
      ]
    }
  },
  {
    "type": "Feature",
    "properties": {
      "name": "irma",
      "address": "Axeltorv 3 1609 København V",
      "lat": 55.6756668,
      "lon": 12.563592,
      "id": "440d3cbc-cd3e-4d8b-b404-e1c15a1b7e7d"
    },
    "geometry": {
      "type": "Point",
      "coordinates": [
        55.6756668,
        12.563592
      ]
    }
  },
  {
    "type": "Feature",
    "properties": {
      "name": "irma",
      "address": "Nærumvænge Torv 1 2850 Nærum",
      "lat": 55.81474,
      "lon": 12.53023,
      "id": "a609476f-f9f3-4289-9f2b-491db4adf146"
    },
    "geometry": {
      "type": "Point",
      "coordinates": [
        55.81474,
        12.53023
      ]
    }
  },
  {
    "type": "Feature",
    "properties": {
      "name": "irma",
      "address": "Vesterbrogade 162 1800 Frederiksberg C",
      "lat": 55.6703453,
      "lon": 12.539238,
      "id": "72d8a6c3-0f54-484f-a4eb-7d1ae23bd3b9"
    },
    "geometry": {
      "type": "Point",
      "coordinates": [
        55.6703453,
        12.539238
      ]
    }
  },
  {
    "type": "Feature",
    "properties": {
      "name": "irma",
      "address": "Peter Bangs Vej 61 2000 Frederiksberg",
      "lat": 55.6786423,
      "lon": 12.507781,
      "id": "ba0986a1-4d8e-4430-ab74-123621b6fb01"
    },
    "geometry": {
      "type": "Point",
      "coordinates": [
        55.6786423,
        12.507781
      ]
    }
  },
  {
    "type": "Feature",
    "properties": {
      "name": "irma",
      "address": "Hovedgaden 42 3460 Birkerød",
      "lat": 55.83998,
      "lon": 12.43004,
      "id": "457d01ae-0760-42fa-a8e6-3a03b188b50e"
    },
    "geometry": {
      "type": "Point",
      "coordinates": [
        55.83998,
        12.43004
      ]
    }
  },
  {
    "type": "Feature",
    "properties": {
      "name": "irma",
      "address": "Rådhusstræde 10 A 4600 Køge",
      "lat": 55.4576073,
      "lon": 12.185729,
      "id": "7f0315ce-de98-48a3-90db-01c70c1d2dc1"
    },
    "geometry": {
      "type": "Point",
      "coordinates": [
        55.4576073,
        12.185729
      ]
    }
  },
  {
    "type": "Feature",
    "properties": {
      "name": "irma",
      "address": "Ryvangs Alle 81 2900 Hellerup",
      "lat": 55.7313,
      "lon": 12.56754,
      "id": "971435a8-6126-4d53-acd8-62e426ebc14c"
    },
    "geometry": {
      "type": "Point",
      "coordinates": [
        55.7313,
        12.56754
      ]
    }
  },
  {
    "type": "Feature",
    "properties": {
      "name": "irma",
      "address": "Østergade 52, Underetagen 1100 København K",
      "lat": 55.67945,
      "lon": 12.5802164,
      "id": "5fdee379-ff0d-4815-acc3-ad1269b9de4b"
    },
    "geometry": {
      "type": "Point",
      "coordinates": [
        55.67945,
        12.5802164
      ]
    }
  },
  {
    "type": "Feature",
    "properties": {
      "name": "rema",
      "address": "Nyløkke 3 6200 Aabenraa",
      "lat": 55.0619,
      "lon": 9.40705,
      "id": "7fd5c4d7-73f0-454a-8c1d-33e7f324784a"
    },
    "geometry": {
      "type": "Point",
      "coordinates": [
        55.0619,
        9.40705
      ]
    }
  },
  {
    "type": "Feature",
    "properties": {
      "name": "rema",
      "address": "Rugkobbel, Farversmøllevej 2-4 6200 Aabenraa",
      "lat": 55.033647,
      "lon": 9.405931,
      "id": "c0b64100-ac46-480e-8377-2881992ee963"
    },
    "geometry": {
      "type": "Point",
      "coordinates": [
        55.033647,
        9.405931
      ]
    }
  },
  {
    "type": "Feature",
    "properties": {
      "name": "rema",
      "address": "Reberbanen 7 st. 6200 Aabenraa",
      "lat": 55.048443,
      "lon": 9.4214964,
      "id": "b30ebe60-0edb-437c-8c73-4829462b2c98"
    },
    "geometry": {
      "type": "Point",
      "coordinates": [
        55.048443,
        9.4214964
      ]
    }
  },
  {
    "type": "Feature",
    "properties": {
      "name": "rema",
      "address": "Gugvej 211 9210 Aalborg",
      "lat": 57.0089679,
      "lon": 9.9272792,
      "id": "86935125-4274-4d86-9eb0-8dac12358f5f"
    },
    "geometry": {
      "type": "Point",
      "coordinates": [
        57.0089679,
        9.9272792
      ]
    }
  },
  {
    "type": "Feature",
    "properties": {
      "name": "rema",
      "address": "Vejgaard Bymidte 8 9000 Aalborg",
      "lat": 57.0420791,
      "lon": 9.9489209,
      "id": "2c46fe8e-3af9-47e1-8601-69f3eaafde37"
    },
    "geometry": {
      "type": "Point",
      "coordinates": [
        57.0420791,
        9.9489209
      ]
    }
  },
  {
    "type": "Feature",
    "properties": {
      "name": "rema",
      "address": "Hasseris Bymidte 4 9000 Aalborg",
      "lat": 57.03702,
      "lon": 9.882561,
      "id": "c9a30e5c-645d-4e26-8b49-8f3cc26742dc"
    },
    "geometry": {
      "type": "Point",
      "coordinates": [
        57.03702,
        9.882561
      ]
    }
  },
  {
    "type": "Feature",
    "properties": {
      "name": "rema",
      "address": "Danalien 1 E 9000 Aalborg",
      "lat": 57.02927,
      "lon": 9.94365,
      "id": "06a38336-1bb1-4bc4-a2f6-e31bcf61e3c4"
    },
    "geometry": {
      "type": "Point",
      "coordinates": [
        57.02927,
        9.94365
      ]
    }
  },
  {
    "type": "Feature",
    "properties": {
      "name": "rema",
      "address": "Østerbro 29 A 9000 Aalborg",
      "lat": 57.04607,
      "lon": 9.93516,
      "id": "a77c23b2-f858-43ec-a8b4-11684405ba36"
    },
    "geometry": {
      "type": "Point",
      "coordinates": [
        57.04607,
        9.93516
      ]
    }
  },
  {
    "type": "Feature",
    "properties": {
      "name": "rema",
      "address": "Nibevej 308, Frejlev 9200 Aalborg",
      "lat": 57.007052,
      "lon": 9.81734,
      "id": "2513c690-a0e6-4f8c-8b85-b7e4073ca658"
    },
    "geometry": {
      "type": "Point",
      "coordinates": [
        57.007052,
        9.81734
      ]
    }
  },
  {
    "type": "Feature",
    "properties": {
      "name": "rema",
      "address": "Godsbanen 2 9000 Aalborg",
      "lat": 57.04227,
      "lon": 9.92482,
      "id": "6bd4a830-c999-4df3-ab29-7cbd16150dd1"
    },
    "geometry": {
      "type": "Point",
      "coordinates": [
        57.04227,
        9.92482
      ]
    }
  },
  {
    "type": "Feature",
    "properties": {
      "name": "rema",
      "address": "Stenbjergvej 1 9220 Aalborg Øst",
      "lat": 57.0399016,
      "lon": 10.0031272,
      "id": "bc7bb76a-5753-4e85-93a4-119e9866b648"
    },
    "geometry": {
      "type": "Point",
      "coordinates": [
        57.0399016,
        10.0031272
      ]
    }
  },
  {
    "type": "Feature",
    "properties": {
      "name": "rema",
      "address": "Testrupvej 2A 9620 Aalestrup",
      "lat": 56.6968304,
      "lon": 9.490995,
      "id": "d534866c-e028-4dd8-9b1b-5993144d2c1e"
    },
    "geometry": {
      "type": "Point",
      "coordinates": [
        56.6968304,
        9.490995
      ]
    }
  },
  {
    "type": "Feature",
    "properties": {
      "name": "rema",
      "address": "Frederiksgade 82 8000 Aarhus C",
      "lat": 56.1536307,
      "lon": 10.2028833,
      "id": "5f5279c7-5e94-41f7-9819-74e18292fad9"
    },
    "geometry": {
      "type": "Point",
      "coordinates": [
        56.1536307,
        10.2028833
      ]
    }
  },
  {
    "type": "Feature",
    "properties": {
      "name": "rema",
      "address": "Nørre Allé 24-26 8000 Aarhus C",
      "lat": 56.16033,
      "lon": 10.20706,
      "id": "909e4ebf-d27d-4ecd-8884-a9a7439726f7"
    },
    "geometry": {
      "type": "Point",
      "coordinates": [
        56.16033,
        10.20706
      ]
    }
  },
  {
    "type": "Feature",
    "properties": {
      "name": "rema",
      "address": "Vesterbro Torv 10 8000 Aarhus C",
      "lat": 56.158324,
      "lon": 10.198364,
      "id": "e87c1e34-7fab-42ca-bea3-81f001b13982"
    },
    "geometry": {
      "type": "Point",
      "coordinates": [
        56.158324,
        10.198364
      ]
    }
  },
  {
    "type": "Feature",
    "properties": {
      "name": "rema",
      "address": "Frederiks Allé 148 8000 Aarhus C",
      "lat": 56.146834,
      "lon": 10.194385,
      "id": "b6e0f4c3-694e-4369-8db8-a126d451851a"
    },
    "geometry": {
      "type": "Point",
      "coordinates": [
        56.146834,
        10.194385
      ]
    }
  },
  {
    "type": "Feature",
    "properties": {
      "name": "rema",
      "address": "Randersvej 142 8200 Aarhus N",
      "lat": 56.1789032,
      "lon": 10.200494499,
      "id": "70aacc1f-3e5e-4e58-97a3-383fba68c3ea"
    },
    "geometry": {
      "type": "Point",
      "coordinates": [
        56.1789032,
        10.200494499
      ]
    }
  },
  {
    "type": "Feature",
    "properties": {
      "name": "rema",
      "address": "Trøjborgvej 8 k 8200 Aarhus N",
      "lat": 56.16924,
      "lon": 10.21676,
      "id": "11c2836e-a34d-4e9a-9db1-54debf0cb9d6"
    },
    "geometry": {
      "type": "Point",
      "coordinates": [
        56.16924,
        10.21676
      ]
    }
  },
  {
    "type": "Feature",
    "properties": {
      "name": "rema",
      "address": "Vilhelm Bergsøes Vej 62 8210 Aarhus V",
      "lat": 56.170078,
      "lon": 10.185153,
      "id": "8e634554-6b9e-4a41-86e4-610cdd569b66"
    },
    "geometry": {
      "type": "Point",
      "coordinates": [
        56.170078,
        10.185153
      ]
    }
  },
  {
    "type": "Feature",
    "properties": {
      "name": "rema",
      "address": "Søndergade 36 9600 Aars",
      "lat": 56.801915,
      "lon": 9.520071,
      "id": "f8e61706-d7c8-4008-a899-8e49c963ecf3"
    },
    "geometry": {
      "type": "Point",
      "coordinates": [
        56.801915,
        9.520071
      ]
    }
  },
  {
    "type": "Feature",
    "properties": {
      "name": "rema",
      "address": "Korsgade 6 5560 Aarup",
      "lat": 55.3810049,
      "lon": 10.0501615,
      "id": "766807ca-44a2-4fb9-8f39-3906d79200f4"
    },
    "geometry": {
      "type": "Point",
      "coordinates": [
        55.3810049,
        10.0501615
      ]
    }
  },
  {
    "type": "Feature",
    "properties": {
      "name": "rema",
      "address": "Silkeborgvej 261 8230 Åbyhøj",
      "lat": 56.1551194,
      "lon": 10.1664087,
      "id": "e538847e-023d-41c2-a149-9b49ae25831a"
    },
    "geometry": {
      "type": "Point",
      "coordinates": [
        56.1551194,
        10.1664087
      ]
    }
  },
  {
    "type": "Feature",
    "properties": {
      "name": "rema",
      "address": "Sdr. Havnevej 4 9982 Ålbæk",
      "lat": 57.59245499,
      "lon": 10.41368599,
      "id": "c59d2068-c3d9-48ea-8e9f-85163a1630a0"
    },
    "geometry": {
      "type": "Point",
      "coordinates": [
        57.59245499,
        10.41368599
      ]
    }
  },
  {
    "type": "Feature",
    "properties": {
      "name": "rema",
      "address": "Egelundsvej 5 A 2620 Albertslund",
      "lat": 55.6611723,
      "lon": 12.3328652,
      "id": "7a9d9f50-0153-454b-89f9-a8454907559f"
    },
    "geometry": {
      "type": "Point",
      "coordinates": [
        55.6611723,
        12.3328652
      ]
    }
  },
  {
    "type": "Feature",
    "properties": {
      "name": "rema",
      "address": "Lilledal 18 3450 Allerød",
      "lat": 55.86931,
      "lon": 12.35264,
      "id": "23d59a49-8edf-4a79-a378-6040b9cec98d"
    },
    "geometry": {
      "type": "Point",
      "coordinates": [
        55.86931,
        12.35264
      ]
    }
  },
  {
    "type": "Feature",
    "properties": {
      "name": "rema",
      "address": "Kongevejen 15, Blovstrød 3450 Allerød",
      "lat": 55.86484,
      "lon": 12.38529,
      "id": "95578c09-ef78-4273-8be0-3ab57c5cf166"
    },
    "geometry": {
      "type": "Point",
      "coordinates": [
        55.86484,
        12.38529
      ]
    }
  },
  {
    "type": "Feature",
    "properties": {
      "name": "rema",
      "address": "Overvejen 79 5792 Årslev",
      "lat": 55.305966,
      "lon": 10.469026,
      "id": "0e04dd3e-f15a-4761-b078-bbc47f8cfdd3"
    },
    "geometry": {
      "type": "Point",
      "coordinates": [
        55.305966,
        10.469026
      ]
    }
  },
  {
    "type": "Feature",
    "properties": {
      "name": "rema",
      "address": "Østergade 74 5610 Assens",
      "lat": 55.2701301,
      "lon": 9.9002997,
      "id": "7c39813e-a64b-4168-b73c-700dfbd8ad4c"
    },
    "geometry": {
      "type": "Point",
      "coordinates": [
        55.2701301,
        9.9002997
      ]
    }
  },
  {
    "type": "Feature",
    "properties": {
      "name": "rema",
      "address": "Kirkegade 7 7490 Aulum",
      "lat": 56.266562,
      "lon": 8.79715,
      "id": "39a56abd-f59f-4e98-85a7-ccb6cfe58246"
    },
    "geometry": {
      "type": "Point",
      "coordinates": [
        56.266562,
        8.79715
      ]
    }
  },
  {
    "type": "Feature",
    "properties": {
      "name": "rema",
      "address": "Hedeparken 9 2750 Ballerup",
      "lat": 55.7188684,
      "lon": 12.3582041,
      "id": "4dcee12e-4454-4393-a47a-6114a9c4563d"
    },
    "geometry": {
      "type": "Point",
      "coordinates": [
        55.7188684,
        12.3582041
      ]
    }
  },
  {
    "type": "Feature",
    "properties": {
      "name": "rema",
      "address": "Skovvej 21 2750 Ballerup",
      "lat": 55.73764,
      "lon": 12.36304,
      "id": "ddd903b1-45e5-436c-baab-5ff5e947d15f"
    },
    "geometry": {
      "type": "Point",
      "coordinates": [
        55.73764,
        12.36304
      ]
    }
  },
  {
    "type": "Feature",
    "properties": {
      "name": "rema",
      "address": "Vesterhavsvej 40 A 6852 Billum",
      "lat": 55.6176851,
      "lon": 8.3274241,
      "id": "db0d4fa9-deff-4d67-9a61-3b9267959dc1"
    },
    "geometry": {
      "type": "Point",
      "coordinates": [
        55.6176851,
        8.3274241
      ]
    }
  },
  {
    "type": "Feature",
    "properties": {
      "name": "rema",
      "address": "Vejlevej 6 7190 Billund",
      "lat": 55.72818,
      "lon": 9.11671,
      "id": "7f539d6b-7f1b-49f1-a91a-ff1063abf8fe"
    },
    "geometry": {
      "type": "Point",
      "coordinates": [
        55.72818,
        9.11671
      ]
    }
  },
  {
    "type": "Feature",
    "properties": {
      "name": "rema",
      "address": "Bistrupvej 82 3460 Birkerød",
      "lat": 55.831273,
      "lon": 12.429081,
      "id": "9f4799a9-2bfd-4e0f-9927-b35e4f8efeba"
    },
    "geometry": {
      "type": "Point",
      "coordinates": [
        55.831273,
        12.429081
      ]
    }
  },
  {
    "type": "Feature",
    "properties": {
      "name": "rema",
      "address": "Kastanjevej 2, Vemmedrup 4632 Bjæverskov",
      "lat": 55.466399,
      "lon": 12.068958,
      "id": "1432faf7-89e6-43d9-865e-0af1e253bf8c"
    },
    "geometry": {
      "type": "Point",
      "coordinates": [
        55.466399,
        12.068958
      ]
    }
  },
  {
    "type": "Feature",
    "properties": {
      "name": "rema",
      "address": "Rossensgade 1 8850 Bjerringbro",
      "lat": 56.3753726,
      "lon": 9.65557079,
      "id": "3219ae76-b9a2-4ceb-814f-e29ad37a486b"
    },
    "geometry": {
      "type": "Point",
      "coordinates": [
        56.3753726,
        9.65557079
      ]
    }
  },
  {
    "type": "Feature",
    "properties": {
      "name": "rema",
      "address": "Løgervej 2,  Agtrup 6091 Bjert",
      "lat": 55.464391,
      "lon": 9.55572,
      "id": "10e788c1-1340-4a7c-a8f8-cc8903d3228c"
    },
    "geometry": {
      "type": "Point",
      "coordinates": [
        55.464391,
        9.55572
      ]
    }
  },
  {
    "type": "Feature",
    "properties": {
      "name": "rema",
      "address": "Vestergade 11-13 5400 Bogense",
      "lat": 55.56465,
      "lon": 10.08856,
      "id": "36752a15-5d53-4c07-9059-39fc86b047ef"
    },
    "geometry": {
      "type": "Point",
      "coordinates": [
        55.56465,
        10.08856
      ]
    }
  },
  {
    "type": "Feature",
    "properties": {
      "name": "rema",
      "address": "Ny Boder 20 7080 Børkop",
      "lat": 55.6415818,
      "lon": 9.650995,
      "id": "a394fbc5-4103-4e87-ad17-5c596af86df7"
    },
    "geometry": {
      "type": "Point",
      "coordinates": [
        55.6415818,
        9.650995
      ]
    }
  },
  {
    "type": "Feature",
    "properties": {
      "name": "rema",
      "address": "Stenbækvej 1 A 8220 Brabrand",
      "lat": 56.1543965,
      "lon": 10.1170535,
      "id": "f9ef30c8-2e6b-45e6-961d-0ce7577ad315"
    },
    "geometry": {
      "type": "Point",
      "coordinates": [
        56.1543965,
        10.1170535
      ]
    }
  },
  {
    "type": "Feature",
    "properties": {
      "name": "rema",
      "address": "Vestergårdsvej 3 7330 Brande",
      "lat": 55.960215,
      "lon": 9.10395,
      "id": "b1ff72b8-830b-4bf2-8da8-4f25d7849a7f"
    },
    "geometry": {
      "type": "Point",
      "coordinates": [
        55.960215,
        9.10395
      ]
    }
  },
  {
    "type": "Feature",
    "properties": {
      "name": "rema",
      "address": "Stationspladsen 17 8740 Brædstrup",
      "lat": 55.972066,
      "lon": 9.609874,
      "id": "ec7b3db9-e2bf-42f4-bda3-1e7317341d4e"
    },
    "geometry": {
      "type": "Point",
      "coordinates": [
        55.972066,
        9.609874
      ]
    }
  },
  {
    "type": "Feature",
    "properties": {
      "name": "rema",
      "address": "Østergade 56 9460 Brovst ",
      "lat": 57.0972701,
      "lon": 9.5259643,
      "id": "f8b73b4d-4fa6-49ee-a62d-12db5ea1a7f1"
    },
    "geometry": {
      "type": "Point",
      "coordinates": [
        57.0972701,
        9.5259643
      ]
    }
  },
  {
    "type": "Feature",
    "properties": {
      "name": "rema",
      "address": "Vallensbækvej 4 2605 Brøndby",
      "lat": 55.6440529,
      "lon": 12.39811209,
      "id": "46db3a0b-5768-4d51-8d07-c3535d4e921f"
    },
    "geometry": {
      "type": "Point",
      "coordinates": [
        55.6440529,
        12.39811209
      ]
    }
  },
  {
    "type": "Feature",
    "properties": {
      "name": "rema",
      "address": "Brøndby Strand Centrum 42 2660 Brøndby Strand",
      "lat": 55.622299,
      "lon": 12.422647,
      "id": "5ba069d9-b449-4991-b353-eac25aece4b2"
    },
    "geometry": {
      "type": "Point",
      "coordinates": [
        55.622299,
        12.422647
      ]
    }
  },
  {
    "type": "Feature",
    "properties": {
      "name": "rema",
      "address": "Sdr. Omfartsvej 2 9700 Brønderslev",
      "lat": 57.274885,
      "lon": 9.923222,
      "id": "e1b4024b-3724-48fc-a34c-1d4630b22956"
    },
    "geometry": {
      "type": "Point",
      "coordinates": [
        57.274885,
        9.923222
      ]
    }
  },
  {
    "type": "Feature",
    "properties": {
      "name": "rema",
      "address": "Markedsvej 125 9700 Brønderslev",
      "lat": 57.27154,
      "lon": 9.96725,
      "id": "da45d670-6ba2-42f5-be89-f99a3d040c93"
    },
    "geometry": {
      "type": "Point",
      "coordinates": [
        57.27154,
        9.96725
      ]
    }
  },
  {
    "type": "Feature",
    "properties": {
      "name": "rema",
      "address": "Frederikssundsvej 256 2700 Brønshøj",
      "lat": 55.7092603,
      "lon": 12.4823966,
      "id": "ca52ac64-3c13-429b-94ed-0bea7106b1f2"
    },
    "geometry": {
      "type": "Point",
      "coordinates": [
        55.7092603,
        12.4823966
      ]
    }
  },
  {
    "type": "Feature",
    "properties": {
      "name": "rema",
      "address": "Muslingevej 10 8250 Egå",
      "lat": 56.2116032,
      "lon": 10.2790869,
      "id": "eb9912f4-88fe-4281-a8db-bee48f1c7a0b"
    },
    "geometry": {
      "type": "Point",
      "coordinates": [
        56.2116032,
        10.2790869
      ]
    }
  },
  {
    "type": "Feature",
    "properties": {
      "name": "rema",
      "address": "Algade 1 5592 Ejby",
      "lat": 55.429357,
      "lon": 9.928747,
      "id": "09126ca0-0689-4371-9295-11e025f393a3"
    },
    "geometry": {
      "type": "Point",
      "coordinates": [
        55.429357,
        9.928747
      ]
    }
  },
  {
    "type": "Feature",
    "properties": {
      "name": "rema",
      "address": "Storegade 196 6705 Esbjerg",
      "lat": 55.4778607,
      "lon": 8.4887073,
      "id": "ab3564e7-3d02-44ba-8943-7fcb3f7d9b64"
    },
    "geometry": {
      "type": "Point",
      "coordinates": [
        55.4778607,
        8.4887073
      ]
    }
  },
  {
    "type": "Feature",
    "properties": {
      "name": "rema",
      "address": "Exnersgade 6700 Esbjerg",
      "lat": 55.4642949,
      "lon": 8.4584482,
      "id": "a458b9f2-4116-4cbd-98de-afcd2c121aef"
    },
    "geometry": {
      "type": "Point",
      "coordinates": [
        55.4642949,
        8.4584482
      ]
    }
  },
  {
    "type": "Feature",
    "properties": {
      "name": "rema",
      "address": "Stormgade 111 6700 Esbjerg",
      "lat": 55.4776548,
      "lon": 8.44741,
      "id": "68689e95-9c1c-458a-9d87-d4e4985a691f"
    },
    "geometry": {
      "type": "Point",
      "coordinates": [
        55.4776548,
        8.44741
      ]
    }
  },
  {
    "type": "Feature",
    "properties": {
      "name": "rema",
      "address": "Parkvej 123 6710 Esbjerg",
      "lat": 55.49522,
      "lon": 8.42112,
      "id": "e0c968bf-c2b2-4abd-ac46-3f6d0ce81909"
    },
    "geometry": {
      "type": "Point",
      "coordinates": [
        55.49522,
        8.42112
      ]
    }
  },
  {
    "type": "Feature",
    "properties": {
      "name": "rema",
      "address": "Havbakken 2 6710 Esbjerg",
      "lat": 55.51677,
      "lon": 8.37191,
      "id": "6ab4a88b-acfa-42b9-91c5-b7d62c2a90d1"
    },
    "geometry": {
      "type": "Point",
      "coordinates": [
        55.51677,
        8.37191
      ]
    }
  },
  {
    "type": "Feature",
    "properties": {
      "name": "rema",
      "address": "Tarp Byvej 30 6715 Esbjerg N",
      "lat": 55.52739,
      "lon": 8.45744,
      "id": "74234fd1-1220-436f-8b7b-1bd26400ddb7"
    },
    "geometry": {
      "type": "Point",
      "coordinates": [
        55.52739,
        8.45744
      ]
    }
  },
  {
    "type": "Feature",
    "properties": {
      "name": "rema",
      "address": "Vandmandens Kvarter 3, Sønderris 6710 Esbjerg V",
      "lat": 55.518932,
      "lon": 8.41476,
      "id": "bdb04532-045c-471c-87fd-3aec7a267345"
    },
    "geometry": {
      "type": "Point",
      "coordinates": [
        55.518932,
        8.41476
      ]
    }
  },
  {
    "type": "Feature",
    "properties": {
      "name": "rema",
      "address": "Engvej 6 5600 Fåborg",
      "lat": 55.098492,
      "lon": 10.237446,
      "id": "d6bd7a14-45e7-4080-baed-b204cf6d7329"
    },
    "geometry": {
      "type": "Point",
      "coordinates": [
        55.098492,
        10.237446
      ]
    }
  },
  {
    "type": "Feature",
    "properties": {
      "name": "rema",
      "address": "Høvevej 1 4540 Fårevejle",
      "lat": 55.803746,
      "lon": 11.439591,
      "id": "e04a578f-73d2-4fbe-9d44-d8741e1c9afe"
    },
    "geometry": {
      "type": "Point",
      "coordinates": [
        55.803746,
        11.439591
      ]
    }
  },
  {
    "type": "Feature",
    "properties": {
      "name": "rema",
      "address": "Th. Eriksens Vej 20 9640 Farsø",
      "lat": 56.772094,
      "lon": 9.341709,
      "id": "25177a3c-9130-47fb-9f8b-0689988ff5aa"
    },
    "geometry": {
      "type": "Point",
      "coordinates": [
        56.772094,
        9.341709
      ]
    }
  },
  {
    "type": "Feature",
    "properties": {
      "name": "rema",
      "address": "Regimentsvej 2 3520 Farum",
      "lat": 55.822333,
      "lon": 12.339919,
      "id": "24b118a9-2a73-4ea0-8888-35fded95c2ef"
    },
    "geometry": {
      "type": "Point",
      "coordinates": [
        55.822333,
        12.339919
      ]
    }
  },
  {
    "type": "Feature",
    "properties": {
      "name": "rema",
      "address": "Hedevej 1 2640 Fløng",
      "lat": 55.6600268,
      "lon": 12.1832814,
      "id": "2b200ade-717b-4c1e-a3e6-ca4b36795ca7"
    },
    "geometry": {
      "type": "Point",
      "coordinates": [
        55.6600268,
        12.1832814
      ]
    }
  },
  {
    "type": "Feature",
    "properties": {
      "name": "rema",
      "address": "Egeskovvej 119 7000 Fredericia",
      "lat": 55.5786621,
      "lon": 9.753408,
      "id": "42127cde-ddd1-4469-bf0d-dfedf6f58988"
    },
    "geometry": {
      "type": "Point",
      "coordinates": [
        55.5786621,
        9.753408
      ]
    }
  },
  {
    "type": "Feature",
    "properties": {
      "name": "rema",
      "address": "Strevelinsvej 1, Erritsø 7000 Fredericia",
      "lat": 55.536393,
      "lon": 9.716881,
      "id": "540003b8-39de-4dc3-8426-50ac9fc4a70e"
    },
    "geometry": {
      "type": "Point",
      "coordinates": [
        55.536393,
        9.716881
      ]
    }
  },
  {
    "type": "Feature",
    "properties": {
      "name": "rema",
      "address": "Vestcentret, Venusvej 12D 7000 Fredericia",
      "lat": 55.5679,
      "lon": 9.72025,
      "id": "5e986334-fee8-4e09-8e10-5c7a544c7306"
    },
    "geometry": {
      "type": "Point",
      "coordinates": [
        55.5679,
        9.72025
      ]
    }
  },
  {
    "type": "Feature",
    "properties": {
      "name": "rema",
      "address": "Rosenørns Allé 31 1970 Frederiksberg",
      "lat": 55.6823325,
      "lon": 12.5507808,
      "id": "c546e337-7eee-401d-9170-ecc6763e0c1b"
    },
    "geometry": {
      "type": "Point",
      "coordinates": [
        55.6823325,
        12.5507808
      ]
    }
  },
  {
    "type": "Feature",
    "properties": {
      "name": "rema",
      "address": "Finsensvej 17 2000 Frederiksberg",
      "lat": 55.68126,
      "lon": 12.51768,
      "id": "e9f7ff12-5cb3-4f4d-82c4-e2ae48940874"
    },
    "geometry": {
      "type": "Point",
      "coordinates": [
        55.68126,
        12.51768
      ]
    }
  },
  {
    "type": "Feature",
    "properties": {
      "name": "rema",
      "address": "Smallegade 14-18 2000 Frederiksberg",
      "lat": 55.678873,
      "lon": 12.530872,
      "id": "16fd61f4-7dee-48a7-a910-c8f0ae1029ec"
    },
    "geometry": {
      "type": "Point",
      "coordinates": [
        55.678873,
        12.530872
      ]
    }
  },
  {
    "type": "Feature",
    "properties": {
      "name": "rema",
      "address": "Gærumvej 36 9900 Frederikshavn",
      "lat": 57.427444,
      "lon": 10.513844,
      "id": "fdea9ca9-034f-4981-8c16-fddfbca0a40c"
    },
    "geometry": {
      "type": "Point",
      "coordinates": [
        57.427444,
        10.513844
      ]
    }
  },
  {
    "type": "Feature",
    "properties": {
      "name": "rema",
      "address": "Hjørringvej 33 9900 Frederikshavn",
      "lat": 57.447853,
      "lon": 10.523769,
      "id": "ad0da897-5091-4c98-8c21-9378c16283ab"
    },
    "geometry": {
      "type": "Point",
      "coordinates": [
        57.447853,
        10.523769
      ]
    }
  },
  {
    "type": "Feature",
    "properties": {
      "name": "rema",
      "address": "Kragholmen 3 9900 Frederikshavn",
      "lat": 57.440076,
      "lon": 10.540644,
      "id": "7a1b513a-3e44-43b1-9b79-b2e01817fdb8"
    },
    "geometry": {
      "type": "Point",
      "coordinates": [
        57.440076,
        10.540644
      ]
    }
  },
  {
    "type": "Feature",
    "properties": {
      "name": "rema",
      "address": "Marbækvej 43 B 3600 Frederikssund",
      "lat": 55.8212,
      "lon": 12.078058,
      "id": "161ac441-909f-4e68-93de-094876f543ef"
    },
    "geometry": {
      "type": "Point",
      "coordinates": [
        55.8212,
        12.078058
      ]
    }
  },
  {
    "type": "Feature",
    "properties": {
      "name": "rema",
      "address": "Undalsvej 2 3300 Frederiksværk",
      "lat": 55.948597,
      "lon": 12.034543,
      "id": "9567727a-921e-493c-a43a-267cedf5db63"
    },
    "geometry": {
      "type": "Point",
      "coordinates": [
        55.948597,
        12.034543
      ]
    }
  },
  {
    "type": "Feature",
    "properties": {
      "name": "rema",
      "address": "Alfavej 4 3250 Gilleleje",
      "lat": 56.1266693,
      "lon": 12.3049591,
      "id": "e4daa84b-b744-49e5-806c-537340eba3b7"
    },
    "geometry": {
      "type": "Point",
      "coordinates": [
        56.1266693,
        12.3049591
      ]
    }
  },
  {
    "type": "Feature",
    "properties": {
      "name": "rema",
      "address": "Søndergade 63 5620 Glamsbjerg",
      "lat": 55.2738469,
      "lon": 10.1082054,
      "id": "4d0b1eb9-ccb7-4f53-80c5-cf8656145b89"
    },
    "geometry": {
      "type": "Point",
      "coordinates": [
        55.2738469,
        10.1082054
      ]
    }
  },
  {
    "type": "Feature",
    "properties": {
      "name": "rema",
      "address": "Østbrovej 12 2600 Glostrup",
      "lat": 55.66112,
      "lon": 12.40284,
      "id": "022e4ad7-f473-4011-b1f0-8be2ffddb5c3"
    },
    "geometry": {
      "type": "Point",
      "coordinates": [
        55.66112,
        12.40284
      ]
    }
  },
  {
    "type": "Feature",
    "properties": {
      "name": "rema",
      "address": "Sportsvej 2 2600 Glostrup",
      "lat": 55.6659532,
      "lon": 12.3796448,
      "id": "c0551b56-aefd-4502-b580-324132faa39f"
    },
    "geometry": {
      "type": "Point",
      "coordinates": [
        55.6659532,
        12.3796448
      ]
    }
  },
  {
    "type": "Feature",
    "properties": {
      "name": "rema",
      "address": "Algade 31 4281 Gørlev",
      "lat": 55.539546,
      "lon": 11.226111,
      "id": "13beaf01-4bbe-4cac-8c23-ad0366ab9533"
    },
    "geometry": {
      "type": "Point",
      "coordinates": [
        55.539546,
        11.226111
      ]
    }
  },
  {
    "type": "Feature",
    "properties": {
      "name": "rema",
      "address": "Vestvej 35, Esbønderup 3230 Græsted",
      "lat": 56.0511826,
      "lon": 12.34206229,
      "id": "342906ae-f349-4162-8b2d-1724ef16d203"
    },
    "geometry": {
      "type": "Point",
      "coordinates": [
        56.0511826,
        12.34206229
      ]
    }
  },
  {
    "type": "Feature",
    "properties": {
      "name": "rema",
      "address": "Havnevej 128 8500 Grenaa",
      "lat": 56.4108662,
      "lon": 10.9081602,
      "id": "2b1040b5-91f4-476a-91c5-68853fdd4025"
    },
    "geometry": {
      "type": "Point",
      "coordinates": [
        56.4108662,
        10.9081602
      ]
    }
  },
  {
    "type": "Feature",
    "properties": {
      "name": "rema",
      "address": "Hundige Strandvej 190 2670 Greve",
      "lat": 55.5855125,
      "lon": 12.3197165,
      "id": "214f62a5-eeff-4e99-9087-ec1f7d5a817d"
    },
    "geometry": {
      "type": "Point",
      "coordinates": [
        55.5855125,
        12.3197165
      ]
    }
  },
  {
    "type": "Feature",
    "properties": {
      "name": "rema",
      "address": "Greve Centervej 100, Greve Landsby 2670 Greve",
      "lat": 55.59664429,
      "lon": 12.256839,
      "id": "e1e87ab4-1d25-4164-aa62-1a56d5dbfaac"
    },
    "geometry": {
      "type": "Point",
      "coordinates": [
        55.59664429,
        12.256839
      ]
    }
  },
  {
    "type": "Feature",
    "properties": {
      "name": "rema",
      "address": "Vestre Boulevard 5 7200 Grindsted",
      "lat": 55.7577519,
      "lon": 8.9204317,
      "id": "f39b8619-37ed-47df-a50e-b9c7ae910078"
    },
    "geometry": {
      "type": "Point",
      "coordinates": [
        55.7577519,
        8.9204317
      ]
    }
  },
  {
    "type": "Feature",
    "properties": {
      "name": "rema",
      "address": "Postvænget 1 5683 Haarby",
      "lat": 55.224345,
      "lon": 10.121191,
      "id": "8586cb04-f867-4667-b260-2505745f8925"
    },
    "geometry": {
      "type": "Point",
      "coordinates": [
        55.224345,
        10.121191
      ]
    }
  },
  {
    "type": "Feature",
    "properties": {
      "name": "rema",
      "address": "Simmerstedvej 50 B 6100 Haderslev",
      "lat": 55.251392,
      "lon": 9.466658,
      "id": "4794794b-e75f-464d-a3a2-75d1a4649c91"
    },
    "geometry": {
      "type": "Point",
      "coordinates": [
        55.251392,
        9.466658
      ]
    }
  },
  {
    "type": "Feature",
    "properties": {
      "name": "rema",
      "address": "Sejlstensgyde 2 6100 Haderslev",
      "lat": 55.2485804,
      "lon": 9.4943267,
      "id": "0595a83b-35b2-491b-9ba1-0f7cee8814ff"
    },
    "geometry": {
      "type": "Point",
      "coordinates": [
        55.2485804,
        9.4943267
      ]
    }
  },
  {
    "type": "Feature",
    "properties": {
      "name": "rema",
      "address": "Chr. X's Vej 2A 6100 Haderslev",
      "lat": 55.264827,
      "lon": 9.4961379,
      "id": "1a7a890e-4cca-4697-81cf-77e43f1f758c"
    },
    "geometry": {
      "type": "Point",
      "coordinates": [
        55.264827,
        9.4961379
      ]
    }
  },
  {
    "type": "Feature",
    "properties": {
      "name": "rema",
      "address": "Gammel Sellingvej 1 8370 Hadsten",
      "lat": 56.32253,
      "lon": 10.04387,
      "id": "89d1ac8a-013e-4c18-8f1a-627f2b9d95fb"
    },
    "geometry": {
      "type": "Point",
      "coordinates": [
        56.32253,
        10.04387
      ]
    }
  },
  {
    "type": "Feature",
    "properties": {
      "name": "rema",
      "address": "Jernbanegade 6 9560 Hadsund",
      "lat": 56.718354,
      "lon": 10.12092,
      "id": "6fee2e09-ab81-4123-b0af-37a04e17ba6a"
    },
    "geometry": {
      "type": "Point",
      "coordinates": [
        56.718354,
        10.12092
      ]
    }
  },
  {
    "type": "Feature",
    "properties": {
      "name": "rema",
      "address": "Anbækvej 1 8450 Hammel",
      "lat": 56.25725,
      "lon": 9.8629,
      "id": "9195f9e9-21b8-4e7b-8338-ffbd40f0c6d2"
    },
    "geometry": {
      "type": "Point",
      "coordinates": [
        56.25725,
        9.8629
      ]
    }
  },
  {
    "type": "Feature",
    "properties": {
      "name": "rema",
      "address": "Ringstedvej 6 4690 Haslev",
      "lat": 55.329358,
      "lon": 11.9586539,
      "id": "fa63b8dd-32c9-4d76-a69a-25e349fdd6db"
    },
    "geometry": {
      "type": "Point",
      "coordinates": [
        55.329358,
        11.9586539
      ]
    }
  },
  {
    "type": "Feature",
    "properties": {
      "name": "rema",
      "address": "Overholmvej 1 8722 Hedensted",
      "lat": 55.76416,
      "lon": 9.686,
      "id": "a61df3cd-a5cc-420e-adbd-e39cfa27fe32"
    },
    "geometry": {
      "type": "Point",
      "coordinates": [
        55.76416,
        9.686
      ]
    }
  },
  {
    "type": "Feature",
    "properties": {
      "name": "rema",
      "address": "Esrumvej 145 3000 Helsingør",
      "lat": 56.040155,
      "lon": 12.567549,
      "id": "57336504-e8fb-486a-8513-5c39dca6d020"
    },
    "geometry": {
      "type": "Point",
      "coordinates": [
        56.040155,
        12.567549
      ]
    }
  },
  {
    "type": "Feature",
    "properties": {
      "name": "rema",
      "address": "Herlev Hovedgade 129 2730 Herlev",
      "lat": 55.7228292,
      "lon": 12.4386983,
      "id": "d4241425-4b63-447a-8820-eed0777f4035"
    },
    "geometry": {
      "type": "Point",
      "coordinates": [
        55.7228292,
        12.4386983
      ]
    }
  },
  {
    "type": "Feature",
    "properties": {
      "name": "rema",
      "address": "Viborgvej 97 7400 Herning",
      "lat": 56.145139,
      "lon": 8.993689,
      "id": "0acecc11-b68c-4c9a-b917-ddb2511b70d5"
    },
    "geometry": {
      "type": "Point",
      "coordinates": [
        56.145139,
        8.993689
      ]
    }
  },
  {
    "type": "Feature",
    "properties": {
      "name": "rema",
      "address": "Klokkekildevej 23, Gjellerup 7400 Herning",
      "lat": 56.1467418,
      "lon": 9.043535,
      "id": "0e70f4ff-3104-4de4-96e9-5ae0603ba1e7"
    },
    "geometry": {
      "type": "Point",
      "coordinates": [
        56.1467418,
        9.043535
      ]
    }
  },
  {
    "type": "Feature",
    "properties": {
      "name": "rema",
      "address": "Lind Hovedgade 2 7400 Herning",
      "lat": 56.107662,
      "lon": 8.978436,
      "id": "375d7f95-8ce1-414d-a58b-b771abfa519d"
    },
    "geometry": {
      "type": "Point",
      "coordinates": [
        56.107662,
        8.978436
      ]
    }
  },
  {
    "type": "Feature",
    "properties": {
      "name": "rema",
      "address": "Snejbjerg Hovedgade 40C 7400 Herning",
      "lat": 56.1324143,
      "lon": 8.8977852,
      "id": "764615cc-bdb6-4f8c-8ff3-b632b5955722"
    },
    "geometry": {
      "type": "Point",
      "coordinates": [
        56.1324143,
        8.8977852
      ]
    }
  },
  {
    "type": "Feature",
    "properties": {
      "name": "rema",
      "address": "H. P. Hansens Vej 50 7400 Herning",
      "lat": 56.14544,
      "lon": 8.96208,
      "id": "b6aeadaf-9be0-4d1b-a808-c7779e4771ac"
    },
    "geometry": {
      "type": "Point",
      "coordinates": [
        56.14544,
        8.96208
      ]
    }
  },
  {
    "type": "Feature",
    "properties": {
      "name": "rema",
      "address": "Absalonsvej 2 7400 Herning",
      "lat": 56.1341655,
      "lon": 8.999599,
      "id": "e3fd8e3b-4782-4d38-966d-14bedcce1959"
    },
    "geometry": {
      "type": "Point",
      "coordinates": [
        56.1341655,
        8.999599
      ]
    }
  },
  {
    "type": "Feature",
    "properties": {
      "name": "rema",
      "address": "Holstebrovej 33 7400 Herning",
      "lat": 56.13864,
      "lon": 8.94606,
      "id": "9a668d57-a23e-47fc-8ecf-1f9b729cbab3"
    },
    "geometry": {
      "type": "Point",
      "coordinates": [
        56.13864,
        8.94606
      ]
    }
  },
  {
    "type": "Feature",
    "properties": {
      "name": "rema",
      "address": "Sophienborg, Sophienborg Allé 3 3400 Hillerød",
      "lat": 55.950537,
      "lon": 12.263784,
      "id": "942ee065-8105-4f89-930b-f176e429623b"
    },
    "geometry": {
      "type": "Point",
      "coordinates": [
        55.950537,
        12.263784
      ]
    }
  },
  {
    "type": "Feature",
    "properties": {
      "name": "rema",
      "address": "Milnersvej 49 3400 Hillerød",
      "lat": 55.920159,
      "lon": 12.289759,
      "id": "2661bafe-106e-4c78-b97e-6396ca71c594"
    },
    "geometry": {
      "type": "Point",
      "coordinates": [
        55.920159,
        12.289759
      ]
    }
  },
  {
    "type": "Feature",
    "properties": {
      "name": "rema",
      "address": "Skansevej 4-8 3400 Hillerød",
      "lat": 55.9331901,
      "lon": 12.31947071,
      "id": "0ce5f384-92ea-47f4-acf7-4489906d2ec8"
    },
    "geometry": {
      "type": "Point",
      "coordinates": [
        55.9331901,
        12.31947071
      ]
    }
  },
  {
    "type": "Feature",
    "properties": {
      "name": "rema",
      "address": "Banegårdspladsen 13 9850 Hirtshals",
      "lat": 57.591281,
      "lon": 9.9609955,
      "id": "e328f9dc-e47f-4a9b-bc47-6f93539e7172"
    },
    "geometry": {
      "type": "Point",
      "coordinates": [
        57.591281,
        9.9609955
      ]
    }
  },
  {
    "type": "Feature",
    "properties": {
      "name": "rema",
      "address": "Skovglimt 2 9320 Hjallerup",
      "lat": 57.16748,
      "lon": 10.1431,
      "id": "a82cfcf0-650f-42c0-9596-cd89c5fbe204"
    },
    "geometry": {
      "type": "Point",
      "coordinates": [
        57.16748,
        10.1431
      ]
    }
  },
  {
    "type": "Feature",
    "properties": {
      "name": "rema",
      "address": "Trollhättanvej 2 9800 Hjørring",
      "lat": 57.466722,
      "lon": 9.972912,
      "id": "2d16c59d-7c60-433e-8482-ee968799ce51"
    },
    "geometry": {
      "type": "Point",
      "coordinates": [
        57.466722,
        9.972912
      ]
    }
  },
  {
    "type": "Feature",
    "properties": {
      "name": "rema",
      "address": "Odinsvej 2 9800 Hjørring",
      "lat": 57.44764,
      "lon": 9.994522,
      "id": "a4080f75-427c-45e4-b391-0dd4ece9f0c5"
    },
    "geometry": {
      "type": "Point",
      "coordinates": [
        57.44764,
        9.994522
      ]
    }
  },
  {
    "type": "Feature",
    "properties": {
      "name": "rema",
      "address": "Hestkærvej 1 9800 Hjørring",
      "lat": 57.456545,
      "lon": 10.01126399,
      "id": "957ac347-6b8c-4349-b575-c7bf5e157f84"
    },
    "geometry": {
      "type": "Point",
      "coordinates": [
        57.456545,
        10.01126399
      ]
    }
  },
  {
    "type": "Feature",
    "properties": {
      "name": "rema",
      "address": "Mariagervej 3 9500 Hobro",
      "lat": 56.6341006,
      "lon": 9.8010756,
      "id": "df406d9b-b152-42f3-a53b-1d00797c266d"
    },
    "geometry": {
      "type": "Point",
      "coordinates": [
        56.6341006,
        9.8010756
      ]
    }
  },
  {
    "type": "Feature",
    "properties": {
      "name": "rema",
      "address": "Halvmånen 61 4300 Holbæk",
      "lat": 55.709708,
      "lon": 11.756931,
      "id": "dd5b4611-b7b2-4a41-a266-fb27cb2f7685"
    },
    "geometry": {
      "type": "Point",
      "coordinates": [
        55.709708,
        11.756931
      ]
    }
  },
  {
    "type": "Feature",
    "properties": {
      "name": "rema",
      "address": "Roskildevej 201 4300 Holbæk",
      "lat": 55.6965452,
      "lon": 11.7273837,
      "id": "205d5c83-3353-480e-a31e-b586923c2ab1"
    },
    "geometry": {
      "type": "Point",
      "coordinates": [
        55.6965452,
        11.7273837
      ]
    }
  },
  {
    "type": "Feature",
    "properties": {
      "name": "rema",
      "address": "Kalundborgvej 202 4300 Holbæk",
      "lat": 55.71203,
      "lon": 11.66438,
      "id": "69b0d184-3716-42bf-9ba4-f8b466794ee9"
    },
    "geometry": {
      "type": "Point",
      "coordinates": [
        55.71203,
        11.66438
      ]
    }
  },
  {
    "type": "Feature",
    "properties": {
      "name": "rema",
      "address": "Nørreport Centret 7500 Holstebro",
      "lat": 56.362975,
      "lon": 8.622065,
      "id": "eee38984-ba62-4561-88f3-0493a27e1af9"
    },
    "geometry": {
      "type": "Point",
      "coordinates": [
        56.362975,
        8.622065
      ]
    }
  },
  {
    "type": "Feature",
    "properties": {
      "name": "rema",
      "address": "Beethovensvej 10, Ellebækcentret 7500 Holstebro",
      "lat": 56.37622,
      "lon": 8.58132,
      "id": "bb332a2e-b454-4343-8fcb-075811c2e6bf"
    },
    "geometry": {
      "type": "Point",
      "coordinates": [
        56.37622,
        8.58132
      ]
    }
  },
  {
    "type": "Feature",
    "properties": {
      "name": "rema",
      "address": "Døesvej 11 7500 Holstebro",
      "lat": 56.3646884,
      "lon": 8.6088929999,
      "id": "a046f5e5-c8f1-4e48-bc8b-dcdbd793c46a"
    },
    "geometry": {
      "type": "Point",
      "coordinates": [
        56.3646884,
        8.6088929999
      ]
    }
  },
  {
    "type": "Feature",
    "properties": {
      "name": "rema",
      "address": "Halgårdvej 1 7500 Holstebro",
      "lat": 56.335032784,
      "lon": 8.649128436,
      "id": "8098ebd9-54a4-4af7-bc57-3172766485b3"
    },
    "geometry": {
      "type": "Point",
      "coordinates": [
        56.335032784,
        8.649128436
      ]
    }
  },
  {
    "type": "Feature",
    "properties": {
      "name": "rema",
      "address": "Hornebyvej 50 3100 Hornbæk",
      "lat": 56.081966,
      "lon": 12.445617,
      "id": "7f765ca7-d08c-4ee9-a528-5a38ed30d325"
    },
    "geometry": {
      "type": "Point",
      "coordinates": [
        56.081966,
        12.445617
      ]
    }
  },
  {
    "type": "Feature",
    "properties": {
      "name": "rema",
      "address": "Dalgårdsparken 4 8543 Hornslet",
      "lat": 56.305857,
      "lon": 10.31575,
      "id": "9c56294d-79e5-4266-960d-b65bbbdd08c4"
    },
    "geometry": {
      "type": "Point",
      "coordinates": [
        56.305857,
        10.31575
      ]
    }
  },
  {
    "type": "Feature",
    "properties": {
      "name": "rema",
      "address": "Torsted, Thorsgårdsvej 8 8700 Horsens",
      "lat": 55.8419288,
      "lon": 9.8102045,
      "id": "f40944c5-00ed-4d7d-8e8f-1367344bf1da"
    },
    "geometry": {
      "type": "Point",
      "coordinates": [
        55.8419288,
        9.8102045
      ]
    }
  },
  {
    "type": "Feature",
    "properties": {
      "name": "rema",
      "address": "Bjerrevej 144 8700 Horsens",
      "lat": 55.838313,
      "lon": 9.847821,
      "id": "b08dccbd-0863-4b1d-8d82-102efb4c2dfb"
    },
    "geometry": {
      "type": "Point",
      "coordinates": [
        55.838313,
        9.847821
      ]
    }
  },
  {
    "type": "Feature",
    "properties": {
      "name": "rema",
      "address": "Sankt Helene Vej 4 8700 Horsens",
      "lat": 55.8597,
      "lon": 9.84508,
      "id": "2a6f2ce0-10c0-431e-a815-0ce2416f2964"
    },
    "geometry": {
      "type": "Point",
      "coordinates": [
        55.8597,
        9.84508
      ]
    }
  },
  {
    "type": "Feature",
    "properties": {
      "name": "rema",
      "address": "Sundparkens Butikstorv 8700 Horsens",
      "lat": 55.867782,
      "lon": 9.885879,
      "id": "08d934c9-b7b1-4f9e-bdaf-fa0ffd002dff"
    },
    "geometry": {
      "type": "Point",
      "coordinates": [
        55.867782,
        9.885879
      ]
    }
  },
  {
    "type": "Feature",
    "properties": {
      "name": "rema",
      "address": "Hede Nielsens Vej 2 8700 Horsens",
      "lat": 55.874117,
      "lon": 9.8430389,
      "id": "3bae7173-125a-4b83-b68b-543b433ce4de"
    },
    "geometry": {
      "type": "Point",
      "coordinates": [
        55.874117,
        9.8430389
      ]
    }
  },
  {
    "type": "Feature",
    "properties": {
      "name": "rema",
      "address": "Bygholm Søpark 25 8700 Horsens",
      "lat": 55.870777,
      "lon": 9.8231819,
      "id": "73341238-0b4d-4605-89fa-69c270da1b51"
    },
    "geometry": {
      "type": "Point",
      "coordinates": [
        55.870777,
        9.8231819
      ]
    }
  },
  {
    "type": "Feature",
    "properties": {
      "name": "rema",
      "address": "Provstlund Allé 4, Lund 8700 Horsens",
      "lat": 55.891115,
      "lon": 9.780381,
      "id": "0c6f13a9-1016-4eb3-9a4c-a2be3b9ccc90"
    },
    "geometry": {
      "type": "Point",
      "coordinates": [
        55.891115,
        9.780381
      ]
    }
  },
  {
    "type": "Feature",
    "properties": {
      "name": "rema",
      "address": "Bygaden 2, Stensballe 8700 Horsens",
      "lat": 55.87197165,
      "lon": 9.90423039,
      "id": "ad286bcd-61d4-4d3c-859a-13ce1c28c2a0"
    },
    "geometry": {
      "type": "Point",
      "coordinates": [
        55.87197165,
        9.90423039
      ]
    }
  },
  {
    "type": "Feature",
    "properties": {
      "name": "rema",
      "address": "Oddervej 176, Skåde 8270 Højbjerg",
      "lat": 56.1043149,
      "lon": 10.2064009,
      "id": "6489a13d-4990-43d2-8579-2e15c1522468"
    },
    "geometry": {
      "type": "Point",
      "coordinates": [
        56.1043149,
        10.2064009
      ]
    }
  },
  {
    "type": "Feature",
    "properties": {
      "name": "rema",
      "address": "Holme Byvej 15, Holme 8270 Højbjerg",
      "lat": 56.11421,
      "lon": 10.1735,
      "id": "439d35fc-acf3-4537-8afa-b368a191b3f7"
    },
    "geometry": {
      "type": "Point",
      "coordinates": [
        56.11421,
        10.1735
      ]
    }
  },
  {
    "type": "Feature",
    "properties": {
      "name": "rema",
      "address": "Ahornvej 1 E 2970 Hørsholm",
      "lat": 55.88795,
      "lon": 12.49627,
      "id": "5bd46ebd-e130-4f9c-98f2-29d924e7cb24"
    },
    "geometry": {
      "type": "Point",
      "coordinates": [
        55.88795,
        12.49627
      ]
    }
  },
  {
    "type": "Feature",
    "properties": {
      "name": "rema",
      "address": "Butiksvej 2 3390 Hundested",
      "lat": 55.959912,
      "lon": 11.876721,
      "id": "1963a308-1e28-4839-a5e6-e327763cbb65"
    },
    "geometry": {
      "type": "Point",
      "coordinates": [
        55.959912,
        11.876721
      ]
    }
  },
  {
    "type": "Feature",
    "properties": {
      "name": "rema",
      "address": "Auktionsvej 4 7760 Hurup",
      "lat": 56.75262,
      "lon": 8.416778,
      "id": "7031fb5e-3295-499d-96cb-10a5ea04d05a"
    },
    "geometry": {
      "type": "Point",
      "coordinates": [
        56.75262,
        8.416778
      ]
    }
  },
  {
    "type": "Feature",
    "properties": {
      "name": "rema",
      "address": "Laurits Olsens Vej 1, st. dør 18 2650 Hvidovre",
      "lat": 55.6631129,
      "lon": 12.4770772,
      "id": "c21779f7-d153-40b2-a849-2b376738af76"
    },
    "geometry": {
      "type": "Point",
      "coordinates": [
        55.6631129,
        12.4770772
      ]
    }
  },
  {
    "type": "Feature",
    "properties": {
      "name": "rema",
      "address": "Kettevej 10 2650 Hvidovre",
      "lat": 55.64525,
      "lon": 12.45917,
      "id": "088821bb-e104-400c-b4a0-3adf55c56835"
    },
    "geometry": {
      "type": "Point",
      "coordinates": [
        55.64525,
        12.45917
      ]
    }
  },
  {
    "type": "Feature",
    "properties": {
      "name": "rema",
      "address": "Marienlunds Allé 2 7430 Ikast",
      "lat": 56.132404,
      "lon": 9.163939,
      "id": "2191f1a1-7814-4484-b891-57fb0c90e350"
    },
    "geometry": {
      "type": "Point",
      "coordinates": [
        56.132404,
        9.163939
      ]
    }
  },
  {
    "type": "Feature",
    "properties": {
      "name": "rema",
      "address": "Ishøj Strandvej 72 2635 Ishøj",
      "lat": 55.6092917,
      "lon": 12.3589354,
      "id": "34950e52-b798-44d2-a180-8917d80555d7"
    },
    "geometry": {
      "type": "Point",
      "coordinates": [
        55.6092917,
        12.3589354
      ]
    }
  },
  {
    "type": "Feature",
    "properties": {
      "name": "rema",
      "address": "Vejlevej 18 7300 Jelling",
      "lat": 55.756246,
      "lon": 9.424568,
      "id": "98c4bc8a-d630-4340-add4-21a8d6c6fb02"
    },
    "geometry": {
      "type": "Point",
      "coordinates": [
        55.756246,
        9.424568
      ]
    }
  },
  {
    "type": "Feature",
    "properties": {
      "name": "rema",
      "address": "Strandvejen 21 7130 Juelsminde",
      "lat": 55.714767,
      "lon": 10.011975,
      "id": "b62dd462-2483-443c-9349-a1be1075b955"
    },
    "geometry": {
      "type": "Point",
      "coordinates": [
        55.714767,
        10.011975
      ]
    }
  },
  {
    "type": "Feature",
    "properties": {
      "name": "rema",
      "address": "Markvænget 1 4450 Jyderup",
      "lat": 55.66376,
      "lon": 11.41224,
      "id": "c0dafe69-701c-4e57-bcc3-8f3a620975be"
    },
    "geometry": {
      "type": "Point",
      "coordinates": [
        55.66376,
        11.41224
      ]
    }
  },
  {
    "type": "Feature",
    "properties": {
      "name": "rema",
      "address": "Bromarken 2 4040 Jyllinge",
      "lat": 55.7590537,
      "lon": 12.1217204,
      "id": "a6e5825a-786e-4855-8318-d6306210a9a0"
    },
    "geometry": {
      "type": "Point",
      "coordinates": [
        55.7590537,
        12.1217204
      ]
    }
  },
  {
    "type": "Feature",
    "properties": {
      "name": "rema",
      "address": "Klosterparkvej 47 4400 Kalundborg",
      "lat": 55.686332,
      "lon": 11.0872689,
      "id": "1985174e-66b8-408d-b142-e788a34198ec"
    },
    "geometry": {
      "type": "Point",
      "coordinates": [
        55.686332,
        11.0872689
      ]
    }
  },
  {
    "type": "Feature",
    "properties": {
      "name": "rema",
      "address": "Slagelsevej 19-23 4400 Kalundborg",
      "lat": 55.6793988,
      "lon": 11.1051333,
      "id": "f91fcc6c-8f22-42b0-b1a7-d9371ecd4ef2"
    },
    "geometry": {
      "type": "Point",
      "coordinates": [
        55.6793988,
        11.1051333
      ]
    }
  },
  {
    "type": "Feature",
    "properties": {
      "name": "rema",
      "address": "Herningvej 4 7470 Karup",
      "lat": 56.308962,
      "lon": 9.165006,
      "id": "b09d7911-f4fc-4b92-adfd-6edce7569910"
    },
    "geometry": {
      "type": "Point",
      "coordinates": [
        56.308962,
        9.165006
      ]
    }
  },
  {
    "type": "Feature",
    "properties": {
      "name": "rema",
      "address": "Præstefælledvej 22,  Tårnby 2770 Kastrup",
      "lat": 55.62361,
      "lon": 12.59893,
      "id": "af219bbf-0778-465e-9c99-0f4ea2ac5672"
    },
    "geometry": {
      "type": "Point",
      "coordinates": [
        55.62361,
        12.59893
      ]
    }
  },
  {
    "type": "Feature",
    "properties": {
      "name": "rema",
      "address": "Kongelundsvej 364, Tårnby 2770 Kastrup",
      "lat": 55.6098836,
      "lon": 12.58413329,
      "id": "d6a1236d-eede-4291-b26e-68e613377000"
    },
    "geometry": {
      "type": "Point",
      "coordinates": [
        55.6098836,
        12.58413329
      ]
    }
  },
  {
    "type": "Feature",
    "properties": {
      "name": "rema",
      "address": "Elverdamsvej 308 4070 Kirke Hyllinge",
      "lat": 55.7098318,
      "lon": 11.89943349,
      "id": "2b58e61f-c69d-4306-bb69-8db91c81f6ce"
    },
    "geometry": {
      "type": "Point",
      "coordinates": [
        55.7098318,
        11.89943349
      ]
    }
  },
  {
    "type": "Feature",
    "properties": {
      "name": "rema",
      "address": "Torvet 11 8620 Kjellerup",
      "lat": 56.2878083,
      "lon": 9.4290615,
      "id": "b55af2ea-c22a-409e-85ac-ee4427ef96ef"
    },
    "geometry": {
      "type": "Point",
      "coordinates": [
        56.2878083,
        9.4290615
      ]
    }
  },
  {
    "type": "Feature",
    "properties": {
      "name": "rema",
      "address": "Egevangen 4, Brønsholm 2980 Kokkedal",
      "lat": 55.905886,
      "lon": 12.475332,
      "id": "39847dae-dbfd-4a15-8f29-5888bd0c7947"
    },
    "geometry": {
      "type": "Point",
      "coordinates": [
        55.905886,
        12.475332
      ]
    }
  },
  {
    "type": "Feature",
    "properties": {
      "name": "rema",
      "address": "Seestvej 2 6000 Kolding",
      "lat": 55.4865394,
      "lon": 9.4481316,
      "id": "0e67a422-234c-4b28-a2aa-08c3d604d057"
    },
    "geometry": {
      "type": "Point",
      "coordinates": [
        55.4865394,
        9.4481316
      ]
    }
  },
  {
    "type": "Feature",
    "properties": {
      "name": "rema",
      "address": "Gefionvej 12 6000 Kolding",
      "lat": 55.5075844,
      "lon": 9.5076354,
      "id": "18085277-6efe-4b65-b646-10db08ecd0f6"
    },
    "geometry": {
      "type": "Point",
      "coordinates": [
        55.5075844,
        9.5076354
      ]
    }
  },
  {
    "type": "Feature",
    "properties": {
      "name": "rema",
      "address": "Kløvervej 39, Tved 6000 Kolding",
      "lat": 55.4842361,
      "lon": 9.5012577,
      "id": "48f06c27-8b4d-48a1-9b56-2f4c43e09ca0"
    },
    "geometry": {
      "type": "Point",
      "coordinates": [
        55.4842361,
        9.5012577
      ]
    }
  },
  {
    "type": "Feature",
    "properties": {
      "name": "rema",
      "address": "Vonsildvej 1 b 6000 Kolding",
      "lat": 55.46874,
      "lon": 9.47143,
      "id": "d814c08d-dda7-446e-a8cb-4f30bcfb6baa"
    },
    "geometry": {
      "type": "Point",
      "coordinates": [
        55.46874,
        9.47143
      ]
    }
  },
  {
    "type": "Feature",
    "properties": {
      "name": "rema",
      "address": "Sydbanegade 9 6000 Kolding",
      "lat": 55.48638,
      "lon": 9.47573,
      "id": "b21475f0-1315-4e7d-b211-c3c875a03e9c"
    },
    "geometry": {
      "type": "Point",
      "coordinates": [
        55.48638,
        9.47573
      ]
    }
  },
  {
    "type": "Feature",
    "properties": {
      "name": "rema",
      "address": "Drejensvej 2, Nr. Bjert 6000 Kolding",
      "lat": 55.5112998,
      "lon": 9.5352156,
      "id": "cd95fc5f-2ee7-474b-90f3-86df25e33af0"
    },
    "geometry": {
      "type": "Point",
      "coordinates": [
        55.5112998,
        9.5352156
      ]
    }
  },
  {
    "type": "Feature",
    "properties": {
      "name": "rema",
      "address": "Tårnborgvej 31 4220 Korsør",
      "lat": 55.339455,
      "lon": 11.1401228,
      "id": "30de54f9-51d6-4cdc-8422-37a2e11004c6"
    },
    "geometry": {
      "type": "Point",
      "coordinates": [
        55.339455,
        11.1401228
      ]
    }
  },
  {
    "type": "Feature",
    "properties": {
      "name": "rema",
      "address": "Skovvej 28 4220 Korsør",
      "lat": 55.324991,
      "lon": 11.14828,
      "id": "30d38f22-fba4-486d-8e6b-c8bf2bf4be7d"
    },
    "geometry": {
      "type": "Point",
      "coordinates": [
        55.324991,
        11.14828
      ]
    }
  },
  {
    "type": "Feature",
    "properties": {
      "name": "rema",
      "address": "Jagtvej 64 2200 København N",
      "lat": 55.695769,
      "lon": 12.550718,
      "id": "2fe62c06-42e9-4548-b4ec-a9c5d3c5bfd0"
    },
    "geometry": {
      "type": "Point",
      "coordinates": [
        55.695769,
        12.550718
      ]
    }
  },
  {
    "type": "Feature",
    "properties": {
      "name": "rema",
      "address": "Farumgade 4 2200 København N",
      "lat": 55.698052,
      "lon": 12.542125,
      "id": "ca4a0d64-763b-430b-8c45-115d4c4fa31d"
    },
    "geometry": {
      "type": "Point",
      "coordinates": [
        55.698052,
        12.542125
      ]
    }
  },
  {
    "type": "Feature",
    "properties": {
      "name": "rema",
      "address": "Frederikssundsvej 84-86 2400 København NV",
      "lat": 55.70619,
      "lon": 12.523237,
      "id": "0a007ce5-9337-4b55-aa0c-e8806e6c7ccb"
    },
    "geometry": {
      "type": "Point",
      "coordinates": [
        55.70619,
        12.523237
      ]
    }
  },
  {
    "type": "Feature",
    "properties": {
      "name": "rema",
      "address": "Æbeløgade 11 2100 København Ø",
      "lat": 55.71162,
      "lon": 12.56253,
      "id": "08ff7440-a825-4de8-bc1b-4bd1cf9ff89f"
    },
    "geometry": {
      "type": "Point",
      "coordinates": [
        55.71162,
        12.56253
      ]
    }
  },
  {
    "type": "Feature",
    "properties": {
      "name": "rema",
      "address": "Rundholtsvej 6 2300 København S",
      "lat": 55.6543483,
      "lon": 12.5667054,
      "id": "32cc9011-4642-4a4b-97b1-a5efcafc1f84"
    },
    "geometry": {
      "type": "Point",
      "coordinates": [
        55.6543483,
        12.5667054
      ]
    }
  },
  {
    "type": "Feature",
    "properties": {
      "name": "rema",
      "address": "Øresundsvej 23 2300 København S",
      "lat": 55.659516,
      "lon": 12.61005,
      "id": "2171cfd2-27ac-4e25-a167-201bb0e88980"
    },
    "geometry": {
      "type": "Point",
      "coordinates": [
        55.659516,
        12.61005
      ]
    }
  },
  {
    "type": "Feature",
    "properties": {
      "name": "rema",
      "address": "Willumsvej 2 2300 København S",
      "lat": 55.640588,
      "lon": 12.617353,
      "id": "c987a24b-78a1-4d16-b48a-041ddb53c987"
    },
    "geometry": {
      "type": "Point",
      "coordinates": [
        55.640588,
        12.617353
      ]
    }
  },
  {
    "type": "Feature",
    "properties": {
      "name": "rema",
      "address": "Kastrupvej 135 2300 København S",
      "lat": 55.6487673,
      "lon": 12.6217039,
      "id": "330bd005-5421-44d5-a01f-71ebd89e1bf5"
    },
    "geometry": {
      "type": "Point",
      "coordinates": [
        55.6487673,
        12.6217039
      ]
    }
  },
  {
    "type": "Feature",
    "properties": {
      "name": "rema",
      "address": "Parmagade 2 A 2300 København S",
      "lat": 55.65267,
      "lon": 12.61232,
      "id": "8d7327d7-ffeb-4cad-87ca-8ccdaedb9850"
    },
    "geometry": {
      "type": "Point",
      "coordinates": [
        55.65267,
        12.61232
      ]
    }
  },
  {
    "type": "Feature",
    "properties": {
      "name": "rema",
      "address": "Ørestads Boulevard 58 2300 København S",
      "lat": 55.6345585,
      "lon": 12.58315349,
      "id": "d4059132-b92c-41bd-91c6-8e6a78898671"
    },
    "geometry": {
      "type": "Point",
      "coordinates": [
        55.6345585,
        12.58315349
      ]
    }
  },
  {
    "type": "Feature",
    "properties": {
      "name": "rema",
      "address": "Hammerichsgade 1 1611 København V",
      "lat": 55.6749258,
      "lon": 12.5637249,
      "id": "982b6ae9-6e1a-43f9-921a-fa8764e1e782"
    },
    "geometry": {
      "type": "Point",
      "coordinates": [
        55.6749258,
        12.5637249
      ]
    }
  },
  {
    "type": "Feature",
    "properties": {
      "name": "rema",
      "address": "Ølbycenter 31, Ølby 4600 Køge",
      "lat": 55.478213,
      "lon": 12.174639,
      "id": "3da2bcdb-7d8d-4e4c-8c7f-c184154d68c9"
    },
    "geometry": {
      "type": "Point",
      "coordinates": [
        55.478213,
        12.174639
      ]
    }
  },
  {
    "type": "Feature",
    "properties": {
      "name": "rema",
      "address": "Harkærvej 3 6340 Kruså",
      "lat": 54.84827,
      "lon": 9.41394,
      "id": "29cf9568-d6bf-4ffe-9c29-783ae625e395"
    },
    "geometry": {
      "type": "Point",
      "coordinates": [
        54.84827,
        9.41394
      ]
    }
  },
  {
    "type": "Feature",
    "properties": {
      "name": "rema",
      "address": "Kongevejen 330 3490 Kvistgård",
      "lat": 55.987692,
      "lon": 12.49961299,
      "id": "f5ab2b50-af65-4a3e-b4c2-a914edb7aab3"
    },
    "geometry": {
      "type": "Point",
      "coordinates": [
        55.987692,
        12.49961299
      ]
    }
  },
  {
    "type": "Feature",
    "properties": {
      "name": "rema",
      "address": "Markedsgade 1 8870 Langå",
      "lat": 56.390462,
      "lon": 9.894358,
      "id": "eec6880a-6987-40ad-98d7-137ade62d803"
    },
    "geometry": {
      "type": "Point",
      "coordinates": [
        56.390462,
        9.894358
      ]
    }
  },
  {
    "type": "Feature",
    "properties": {
      "name": "rema",
      "address": "Grønvangen 3 5550 Langeskov",
      "lat": 55.360899,
      "lon": 10.58719,
      "id": "640f364a-22c2-4d7a-b848-f7236571dfbd"
    },
    "geometry": {
      "type": "Point",
      "coordinates": [
        55.360899,
        10.58719
      ]
    }
  },
  {
    "type": "Feature",
    "properties": {
      "name": "rema",
      "address": "Enghavevej 12 7620 Lemvig",
      "lat": 56.5485335,
      "lon": 8.3124884,
      "id": "738f8782-5be0-49fd-b10a-95282a291ad5"
    },
    "geometry": {
      "type": "Point",
      "coordinates": [
        56.5485335,
        8.3124884
      ]
    }
  },
  {
    "type": "Feature",
    "properties": {
      "name": "rema",
      "address": "Stengårds Allé 118 2800 Lyngby",
      "lat": 55.755845,
      "lon": 12.483423,
      "id": "7d7d0376-16b3-47af-86a6-a4aea813ad22"
    },
    "geometry": {
      "type": "Point",
      "coordinates": [
        55.755845,
        12.483423
      ]
    }
  },
  {
    "type": "Feature",
    "properties": {
      "name": "rema",
      "address": "Gammelmosevej 261 2800 Lyngby",
      "lat": 55.755948,
      "lon": 12.475014,
      "id": "299cffc2-a0a0-48c2-9d90-e2ee6864c547"
    },
    "geometry": {
      "type": "Point",
      "coordinates": [
        55.755948,
        12.475014
      ]
    }
  },
  {
    "type": "Feature",
    "properties": {
      "name": "rema",
      "address": "Gl. Hobrovej 2 9550 Mariager",
      "lat": 56.6465313,
      "lon": 9.9748253,
      "id": "b4be95fb-650b-4d9d-8158-c1dc683b6191"
    },
    "geometry": {
      "type": "Point",
      "coordinates": [
        56.6465313,
        9.9748253
      ]
    }
  },
  {
    "type": "Feature",
    "properties": {
      "name": "rema",
      "address": "Østre Landevej 38 4930 Maribo",
      "lat": 54.7760987,
      "lon": 11.5142607,
      "id": "56b4255b-9c15-40f5-87fd-cc714d33fd95"
    },
    "geometry": {
      "type": "Point",
      "coordinates": [
        54.7760987,
        11.5142607
      ]
    }
  },
  {
    "type": "Feature",
    "properties": {
      "name": "rema",
      "address": "Mårslet Byvej 28 8320 Mårslet",
      "lat": 56.0731479,
      "lon": 10.1673035,
      "id": "111828a7-e65f-472a-aac9-c0d98657f86b"
    },
    "geometry": {
      "type": "Point",
      "coordinates": [
        56.0731479,
        10.1673035
      ]
    }
  },
  {
    "type": "Feature",
    "properties": {
      "name": "rema",
      "address": "Brovejen 191 5500 Middelfart",
      "lat": 55.5005066,
      "lon": 9.7337487,
      "id": "67d5f144-3501-4d28-b139-d8cf15764773"
    },
    "geometry": {
      "type": "Point",
      "coordinates": [
        55.5005066,
        9.7337487
      ]
    }
  },
  {
    "type": "Feature",
    "properties": {
      "name": "rema",
      "address": "Højskolevej 2 A, Strib 5500 Middelfart",
      "lat": 55.52694,
      "lon": 9.78306,
      "id": "a100e33a-2732-41eb-bc32-6b96262da647"
    },
    "geometry": {
      "type": "Point",
      "coordinates": [
        55.52694,
        9.78306
      ]
    }
  },
  {
    "type": "Feature",
    "properties": {
      "name": "rema",
      "address": "Syvstjernen 5 5330 Munkebo",
      "lat": 55.4521,
      "lon": 10.549958,
      "id": "f7908926-924b-4e62-87c9-3f62dab3c267"
    },
    "geometry": {
      "type": "Point",
      "coordinates": [
        55.4521,
        10.549958
      ]
    }
  },
  {
    "type": "Feature",
    "properties": {
      "name": "rema",
      "address": "Tømmergade 6 4900 Nakskov",
      "lat": 54.828676,
      "lon": 11.141675,
      "id": "61a184cf-0e4a-4874-a41f-eb5732fc03d4"
    },
    "geometry": {
      "type": "Point",
      "coordinates": [
        54.828676,
        11.141675
      ]
    }
  },
  {
    "type": "Feature",
    "properties": {
      "name": "rema",
      "address": "Nærum Hovedgade 34 2850 Nærum",
      "lat": 55.8198,
      "lon": 12.53437,
      "id": "da248d87-ffdb-46ab-966d-33408c1c3d6f"
    },
    "geometry": {
      "type": "Point",
      "coordinates": [
        55.8198,
        12.53437
      ]
    }
  },
  {
    "type": "Feature",
    "properties": {
      "name": "rema",
      "address": "Malmbergsvej 1, Gl. Holte 2850 Nærum",
      "lat": 55.83342,
      "lon": 12.52561,
      "id": "95f240a3-23a0-494c-82bd-5323bc141cce"
    },
    "geometry": {
      "type": "Point",
      "coordinates": [
        55.83342,
        12.52561
      ]
    }
  },
  {
    "type": "Feature",
    "properties": {
      "name": "rema",
      "address": "Parkvej 140 4700 Næstved",
      "lat": 55.210327,
      "lon": 11.765333,
      "id": "91c93703-a633-451b-a46e-955dbbf20381"
    },
    "geometry": {
      "type": "Point",
      "coordinates": [
        55.210327,
        11.765333
      ]
    }
  },
  {
    "type": "Feature",
    "properties": {
      "name": "rema",
      "address": "Trompetvej 61 4700 Næstved",
      "lat": 55.2579778,
      "lon": 11.766421,
      "id": "eda66d29-5e73-47a8-939c-9a51278f0236"
    },
    "geometry": {
      "type": "Point",
      "coordinates": [
        55.2579778,
        11.766421
      ]
    }
  },
  {
    "type": "Feature",
    "properties": {
      "name": "rema",
      "address": "Erantisvej 48 4700 Næstved",
      "lat": 55.23843,
      "lon": 11.77808,
      "id": "4a03d472-6256-4c51-b692-18ec9301be88"
    },
    "geometry": {
      "type": "Point",
      "coordinates": [
        55.23843,
        11.77808
      ]
    }
  },
  {
    "type": "Feature",
    "properties": {
      "name": "rema",
      "address": "Dyssegårdsvej 10 4700 Næstved",
      "lat": 55.20336,
      "lon": 11.76554,
      "id": "3eb38343-b069-4c23-92a0-41c331dd91e5"
    },
    "geometry": {
      "type": "Point",
      "coordinates": [
        55.20336,
        11.76554
      ]
    }
  },
  {
    "type": "Feature",
    "properties": {
      "name": "rema",
      "address": "Karrebækvej 4 C 4700 Næstved",
      "lat": 55.2295661,
      "lon": 11.7516629,
      "id": "cc94c7f9-d117-41bd-a528-5ae12bc50627"
    },
    "geometry": {
      "type": "Point",
      "coordinates": [
        55.2295661,
        11.7516629
      ]
    }
  },
  {
    "type": "Feature",
    "properties": {
      "name": "rema",
      "address": "Grønlandsvej 28 4700 Næstved",
      "lat": 55.21708,
      "lon": 11.75678,
      "id": "eff57ca6-0202-49e8-a5c3-d7256aa9a9f6"
    },
    "geometry": {
      "type": "Point",
      "coordinates": [
        55.21708,
        11.75678
      ]
    }
  },
  {
    "type": "Feature",
    "properties": {
      "name": "rema",
      "address": "Søndergade 22, Guderup 6430 Nordborg",
      "lat": 54.985565,
      "lon": 9.868354,
      "id": "e4d086fe-1953-4c67-971f-cd3e4d515983"
    },
    "geometry": {
      "type": "Point",
      "coordinates": [
        54.985565,
        9.868354
      ]
    }
  },
  {
    "type": "Feature",
    "properties": {
      "name": "rema",
      "address": "Skovbakken 1 8766 Nørre-Snede",
      "lat": 55.96394,
      "lon": 9.394417,
      "id": "fa0ad57e-38c5-4d5e-972a-dbc6fee679b6"
    },
    "geometry": {
      "type": "Point",
      "coordinates": [
        55.96394,
        9.394417
      ]
    }
  },
  {
    "type": "Feature",
    "properties": {
      "name": "rema",
      "address": "Vestergade 22 9400 Nørresundby",
      "lat": 57.0595018,
      "lon": 9.91937,
      "id": "7d0a252d-4df4-4207-9885-acd14bf671d4"
    },
    "geometry": {
      "type": "Point",
      "coordinates": [
        57.0595018,
        9.91937
      ]
    }
  },
  {
    "type": "Feature",
    "properties": {
      "name": "rema",
      "address": "Løvbakken 4 B 9400 Nørresundby",
      "lat": 57.07194,
      "lon": 9.92675,
      "id": "5db3d1a2-4869-4ea4-ac6d-8aea8560f47d"
    },
    "geometry": {
      "type": "Point",
      "coordinates": [
        57.07194,
        9.92675
      ]
    }
  },
  {
    "type": "Feature",
    "properties": {
      "name": "rema",
      "address": "Jernbanevej 1 5580 Nr. Aaby",
      "lat": 55.459129,
      "lon": 9.872499,
      "id": "59b9ea1e-e0da-4266-99a2-501ca5130af2"
    },
    "geometry": {
      "type": "Point",
      "coordinates": [
        55.459129,
        9.872499
      ]
    }
  },
  {
    "type": "Feature",
    "properties": {
      "name": "rema",
      "address": "Apotekergade 3 4840 Nr. Alslev",
      "lat": 54.8986773,
      "lon": 11.8781297,
      "id": "27149f97-f392-4226-8d6e-e4ebd2e83805"
    },
    "geometry": {
      "type": "Point",
      "coordinates": [
        54.8986773,
        11.8781297
      ]
    }
  },
  {
    "type": "Feature",
    "properties": {
      "name": "rema",
      "address": "Frisengårdsvej 19 5800 Nyborg",
      "lat": 55.3178883,
      "lon": 10.7933629,
      "id": "2d0e592c-39b7-4007-af1c-14dee1ce7f2b"
    },
    "geometry": {
      "type": "Point",
      "coordinates": [
        55.3178883,
        10.7933629
      ]
    }
  },
  {
    "type": "Feature",
    "properties": {
      "name": "rema",
      "address": "Svaneparken 2 5800 Nyborg",
      "lat": 55.31074,
      "lon": 10.79917,
      "id": "b1f42410-7d0d-468a-8a5c-e97504ef846d"
    },
    "geometry": {
      "type": "Point",
      "coordinates": [
        55.31074,
        10.79917
      ]
    }
  },
  {
    "type": "Feature",
    "properties": {
      "name": "rema",
      "address": "Grønnegårdsvej 7 4800 Nykøbing Falster",
      "lat": 54.767284,
      "lon": 11.881864,
      "id": "ac5a9f97-208a-4944-8e51-5a75cd7d446a"
    },
    "geometry": {
      "type": "Point",
      "coordinates": [
        54.767284,
        11.881864
      ]
    }
  },
  {
    "type": "Feature",
    "properties": {
      "name": "rema",
      "address": "Nordensvej 2 4800 Nykøbing Falster",
      "lat": 54.80767,
      "lon": 11.87207,
      "id": "3005515b-5884-450b-a67e-40faffc20b7d"
    },
    "geometry": {
      "type": "Point",
      "coordinates": [
        54.80767,
        11.87207
      ]
    }
  },
  {
    "type": "Feature",
    "properties": {
      "name": "rema",
      "address": "Vestergade 8 7900 Nykøbing Mors",
      "lat": 56.79444,
      "lon": 8.85573,
      "id": "92193cc8-a88a-4838-949f-6645449a785f"
    },
    "geometry": {
      "type": "Point",
      "coordinates": [
        56.79444,
        8.85573
      ]
    }
  },
  {
    "type": "Feature",
    "properties": {
      "name": "rema",
      "address": "Oddenvej 103 B, Lumsås 4500 Nykøbing Sjælland",
      "lat": 55.9428,
      "lon": 11.51065,
      "id": "074b7a7c-37ab-4ceb-a0c9-0d1402a94e61"
    },
    "geometry": {
      "type": "Point",
      "coordinates": [
        55.9428,
        11.51065
      ]
    }
  },
  {
    "type": "Feature",
    "properties": {
      "name": "rema",
      "address": "Rugårdsvej 6 b, Vogterhus 5000 Odense",
      "lat": 55.3990531,
      "lon": 10.37707999,
      "id": "e5ae3dad-0860-4227-ab68-7e427b06f047"
    },
    "geometry": {
      "type": "Point",
      "coordinates": [
        55.3990531,
        10.37707999
      ]
    }
  },
  {
    "type": "Feature",
    "properties": {
      "name": "rema",
      "address": "Skibhusvej 83-85 5000 Odense C",
      "lat": 55.4080426,
      "lon": 10.3935521,
      "id": "de4215cc-1b5e-46b9-aa3a-e37fb35fdfd4"
    },
    "geometry": {
      "type": "Point",
      "coordinates": [
        55.4080426,
        10.3935521
      ]
    }
  },
  {
    "type": "Feature",
    "properties": {
      "name": "rema",
      "address": "Sandhusvej 4, Marienlund 5000 Odense C",
      "lat": 55.4187215,
      "lon": 10.4040235,
      "id": "18dd8675-a348-40b7-a63f-779fb37a18bb"
    },
    "geometry": {
      "type": "Point",
      "coordinates": [
        55.4187215,
        10.4040235
      ]
    }
  },
  {
    "type": "Feature",
    "properties": {
      "name": "rema",
      "address": "Bogensevej 74, Næsby 5270 Odense N",
      "lat": 55.418897,
      "lon": 10.356821,
      "id": "f6fc1e8a-aec0-44d0-b39e-6eb670200aef"
    },
    "geometry": {
      "type": "Point",
      "coordinates": [
        55.418897,
        10.356821
      ]
    }
  },
  {
    "type": "Feature",
    "properties": {
      "name": "rema",
      "address": "Anderupvej 132 5270 Odense N",
      "lat": 55.43807,
      "lon": 10.38813,
      "id": "665859ef-8910-426a-a8bc-c23b7920ce68"
    },
    "geometry": {
      "type": "Point",
      "coordinates": [
        55.43807,
        10.38813
      ]
    }
  },
  {
    "type": "Feature",
    "properties": {
      "name": "rema",
      "address": "Anderupvej 50, Søhus 5270 Odense N",
      "lat": 55.438619,
      "lon": 10.37472,
      "id": "6f2420c1-9170-49ed-a350-d679eab56d3e"
    },
    "geometry": {
      "type": "Point",
      "coordinates": [
        55.438619,
        10.37472
      ]
    }
  },
  {
    "type": "Feature",
    "properties": {
      "name": "rema",
      "address": "Svendsagervej 2, Seden 5240 Odense NØ",
      "lat": 55.42245,
      "lon": 10.444463,
      "id": "055e47db-dcba-4604-966d-3085464bac1c"
    },
    "geometry": {
      "type": "Point",
      "coordinates": [
        55.42245,
        10.444463
      ]
    }
  },
  {
    "type": "Feature",
    "properties": {
      "name": "rema",
      "address": "Fuglebakken 121, Snestrup 5210 Odense NV",
      "lat": 55.415198,
      "lon": 10.319491,
      "id": "1a392b33-5a7c-4c62-ba12-869131e5d7f4"
    },
    "geometry": {
      "type": "Point",
      "coordinates": [
        55.415198,
        10.319491
      ]
    }
  },
  {
    "type": "Feature",
    "properties": {
      "name": "rema",
      "address": "Hjallesegade 17 5260 Odense S",
      "lat": 55.3562893,
      "lon": 10.3878203,
      "id": "f14f0fda-af23-4aa6-a5e3-66ef37f05a6c"
    },
    "geometry": {
      "type": "Point",
      "coordinates": [
        55.3562893,
        10.3878203
      ]
    }
  },
  {
    "type": "Feature",
    "properties": {
      "name": "rema",
      "address": "Svenstrupvej 94, Skt. Klemens 5260 Odense S",
      "lat": 55.336951,
      "lon": 10.345899,
      "id": "9021e754-65d7-43c3-b396-8d4b3a8d30cf"
    },
    "geometry": {
      "type": "Point",
      "coordinates": [
        55.336951,
        10.345899
      ]
    }
  },
  {
    "type": "Feature",
    "properties": {
      "name": "rema",
      "address": "Hollufgårdsvej 2, Højby 5260 Odense S",
      "lat": 55.338979,
      "lon": 10.437719,
      "id": "886e3458-2c65-46c7-b4d3-82283df2975f"
    },
    "geometry": {
      "type": "Point",
      "coordinates": [
        55.338979,
        10.437719
      ]
    }
  },
  {
    "type": "Feature",
    "properties": {
      "name": "rema",
      "address": "Ejbygade 73 5220 Odense SØ",
      "lat": 55.398543,
      "lon": 10.4262521,
      "id": "1f31205e-6cb3-4fdf-a328-c07918059bbb"
    },
    "geometry": {
      "type": "Point",
      "coordinates": [
        55.398543,
        10.4262521
      ]
    }
  },
  {
    "type": "Feature",
    "properties": {
      "name": "rema",
      "address": "Dalumvej 89 5250 Odense SV",
      "lat": 55.3661026,
      "lon": 10.3732202999,
      "id": "15572342-cc78-4ebc-8be9-f7e5f8856a45"
    },
    "geometry": {
      "type": "Point",
      "coordinates": [
        55.3661026,
        10.3732202999
      ]
    }
  },
  {
    "type": "Feature",
    "properties": {
      "name": "rema",
      "address": "Middelfartvej 123, Bolbro 5200 Odense V",
      "lat": 55.3939508,
      "lon": 10.3486268,
      "id": "5ccbac37-5a9c-4c4f-9a34-e19ce7d65e52"
    },
    "geometry": {
      "type": "Point",
      "coordinates": [
        55.3939508,
        10.3486268
      ]
    }
  },
  {
    "type": "Feature",
    "properties": {
      "name": "rema",
      "address": "Horsebækvej 3 5450 Otterup",
      "lat": 55.517111,
      "lon": 10.39837,
      "id": "e499b34a-9a1d-4ac2-8777-35d54f716523"
    },
    "geometry": {
      "type": "Point",
      "coordinates": [
        55.517111,
        10.39837
      ]
    }
  },
  {
    "type": "Feature",
    "properties": {
      "name": "rema",
      "address": "Gartnerpassagen 1 6870 Ølgod",
      "lat": 55.806115,
      "lon": 8.619301,
      "id": "ec1161a0-40c4-454e-8412-42d40a72c6b4"
    },
    "geometry": {
      "type": "Point",
      "coordinates": [
        55.806115,
        8.619301
      ]
    }
  },
  {
    "type": "Feature",
    "properties": {
      "name": "rema",
      "address": "Rådhusallé 22 3650 Ølstykke",
      "lat": 55.795142,
      "lon": 12.158329,
      "id": "8b88c9cf-48d1-42a6-8ab2-b46ce2b46d34"
    },
    "geometry": {
      "type": "Point",
      "coordinates": [
        55.795142,
        12.158329
      ]
    }
  },